SITE_CODE,SHORT_TITLE,TITLE,SITE_TYPE,SUB_TYPE,STAGE,PROJ_CODE,PROJECT_TITLE,LONGITUDE,LATITUDE,EASTING,NORTHING,MGA_ZONE,COMMODITIES,COMMODITY_GROUP_NAME,TARGET_GROUP_NAME,MAP_LABEL_NAME,INCLUDE_COMMODITY_FLAG,MAP_COMMODITIES,ACTIVE_FLAG,SYMBOL,SYMBOL_STATUS,MAP_SERIES,CONFIDENTIALITY,MAP_SHEET_NO_100K,MAP_SHEET_NAME_100K,MAP_SHEET_NO_250K,MAP_SHEET_NAME_250K,LGA_NAME,DEVELOPMENT_REGION,DISTRICT_NO,DISTRICT_NAME,TECTONIC_UNIT,EXTRACT_DATE
S0001709,CLD,Central Lanthanide (CLD),Mine,Openpit,Operating,J00772,Mt Weld REE / Lynas,122.547575,-28.863966,455876,6807002,51,REE Ce La Nd Sm Gd Eu Y Pr Dy Tb Er Ho Tm Yb Nb Th Ta Lu Sc,Speciality metal,RARE EARTHS,Mt Weld REE,Y,REE Ce La Nd Sm Gd Eu Y Pr Dy Tb Er Ho Tm Yb Nb Th Ta Lu Sc,Y,SPME,O,Major Projects,Public,3440,BURTVILLE,SH51-02,LAVERTON,"LAVERTON, SHIRE OF","GOLDFIELDS-ESPERANCE, Development Region",38,MT. MARGARET,Large igneous provinces and dyke swarms,20260515
S0224441,Bibra,Bibra,Mine,Openpit,Operating,J03488,Karlawinda Gold,120.095899,-23.765131,204001,7368752,51,Au Ag,Precious metal,GOLD,Karlawinda,N,,Y,PRME,O,Major Projects,Public,2950,MUNDIWINDI,SF51-13,ROBERTSON,"MEEKATHARRA, SHIRE OF","MID-WEST, Development Region",52,PEAK HILL M.F.,Collier Basin,20260515
S0236255,Beyondie Trial Evaporation Ponds,Beyondie Trial Evaporation Ponds,Infrastructure,Pond,Care and Maintenance,J05002,Beyondie Potash / Kalium Lakes,120.353831,-24.752342,232380,7259886,51,K K2SO4,Industrial mineral,POTASH,Beyondie Potash K,Y,K K2SO4,Y,INMI,C,Major Projects,Public,2948,BEYONDIE,SG51-01,BULLEN,"WILUNA, SHIRE OF","MID-WEST, Development Region",69,WARBURTON M.F.,Collier Basin,20260515
S0246046,Power Plant,Karlawinda Power Plant,Infrastructure,Power Plant,Operating,J03488,Karlawinda Gold,120.111915,-23.767332,205639,7368541,51,Au Ag,Precious metal,GOLD,Karlawinda Power Plant,N,,Y,ENPL,O,Major Projects,Public,2950,MUNDIWINDI,SF51-13,ROBERTSON,"MEEKATHARRA, SHIRE OF","MID-WEST, Development Region",52,PEAK HILL M.F.,Collier Basin,20260515
S0229741,Odysseus South,Odysseus South,Mine,Decline,Care and Maintenance,J02247,Cosmos,120.575885,-27.596959,260733,6945098,51,Ni Cu Co Pt Pd,Steel alloy metal,NICKEL,Cosmos Ni Cu Co PGE,Y,Ni Cu Co Pt Pd,Y,STAM,C,Major Projects,Public,3042,SIR SAMUEL,SG51-13,SIR SAMUEL,"LEONORA, SHIRE OF","GOLDFIELDS-ESPERANCE, Development Region",36,LAWLERS,Yilgarn Craton,20260515
S0019084,Waroonga Underground,Waroonga Underground,Mine,Decline,Operating,J00098,Agnew - Emu,120.505808,-28.004485,254731,6899793,51,Au Ag,Precious metal,GOLD,Agnew,N,,Y,PRME,O,Major Projects,Public,3041,WILDARA,SH51-01,LEONORA,"LEONORA, SHIRE OF","GOLDFIELDS-ESPERANCE, Development Region",36,LAWLERS,Yilgarn Craton,20260515
S0021076,Seven Mile Hill/Boral,Seven Mile Hill / Boral,Mine,Openpit,Operating,J02867,Seven Mile Hill / Boral,121.378288,-30.846275,344924,6586309,51,Agg Gran,Construction material,CONSTRUCTION MATERIALS,Seven Mile Hill,N,,Y,COMA,O,Major Projects,Public,3136,KALGOORLIE,SH51-09,KALGOORLIE,"COOLGARDIE, SHIRE OF","GOLDFIELDS-ESPERANCE, Development Region",15,COOLGARDIE,Yilgarn Craton,20260515
S0239301,Solar Farm,Agnew - Waroonga Solar Farm,Infrastructure,Other,Operating,J00098,Agnew - Emu,120.512465,-27.99518,255365,6900838,51,Power,Energy,OTHER,Agnew Solar Farm,N,,Y,ENPL,O,Major Projects,Public,3042,SIR SAMUEL,SG51-13,SIR SAMUEL,"LEONORA, SHIRE OF","GOLDFIELDS-ESPERANCE, Development Region",36,LAWLERS,Yilgarn Craton,20260515
S0001723,Bald Hill South,Bald Hill South - Yangibana,Mine,Openpit,Proposed,J00775,Yangibana / Hastings,116.295932,-23.906067,428335,7355995,50,REE Nd Pr Dy Eu Nb,Speciality metal,RARE EARTHS,Yangibana REE,Y,REE Nd Pr Dy Eu Nb,Y,SPME,P,Major Projects,Public,2150,EDMUND,SF50-14,EDMUND,"UPPER GASCOYNE, SHIRE OF","GASCOYNE, Development Region",9,GASCOYNE M.F.,Gascoyne Province,20260515
S0223791,Power,George Palmer Power Station and Gas Pipeline,Infrastructure,Power Plant,Operating,J00446,Sino - Cape Preston Iron,116.15928,-21.07622,412667,7669186,50,Power NaturalGas,Energy,OTHER,George Palmer Power,N,,Y,ENPL,O,Major Projects,Public,2155,FORTESCUE,SF50-06,YARRALOOLA,"KARRATHA, CITY OF","PILBARA, Development Region",8,ASHBURTON M.F.,Hamersley Basin,20260515
S0224380,Iron Valley (Central),Iron Valley Stage 1,Mine,Openpit,Operating,J03682,Iron Valley,119.312624,-22.7317,737513,7484328,50,Fe,Iron,IRON ORE,Iron Valley,N,,Y,IRON,O,Major Projects,Public,2752,WEELI WOLLI,SF50-12,ROY HILL,"EAST PILBARA, SHIRE OF","PILBARA, Development Region",47,WEST PILBARA M.F.,Hamersley Basin,20260515
S0224496,Buckland,Bungaroo South Eastern Area 1,Mine,Openpit,Proposed,J03830,Buckland - Bungaroo South,116.523841,-22.010628,450854,7565920,50,Fe,Iron,IRON ORE,Buckland - Bungaroo South,N,,Y,IRON,P,Major Projects,Public,2253,FARQUHAR,SF50-10,WYLOO,"ASHBURTON, SHIRE OF","PILBARA, Development Region",47,WEST PILBARA M.F.,Hamersley Basin,20260515
S0229860,Yarnima Power,Yarnima Gas-Fired Power Station,Infrastructure,Power Plant,Operating,J00623,Newman / BHPB,119.710194,-23.343145,777109,7415895,50,Power,Energy,OTHER,Yarnima Gas,N,,Y,ENPL,O,Major Projects,Public,2851,NEWMAN,SF50-16,NEWMAN,"EAST PILBARA, SHIRE OF","PILBARA, Development Region",52,PEAK HILL M.F.,Hamersley Basin,20260515
S0235993,Sierra Pits,Sierra - Roy Hill,Mine,Openpit,Operating,J02889,Roy Hill Iron Ore,120.01153,-22.557201,192648,7502420,51,Fe,Iron,IRON ORE,Roy Hill Iron Ore,N,,Y,IRON,O,Major Projects,Public,2952,ETHEL CREEK,SF51-09,BALFOUR DOWNS,"EAST PILBARA, SHIRE OF","PILBARA, Development Region",46,NULLAGINE,Hamersley Basin,20260515
S0001172,George Palmer,George Palmer Pit,Mine,Openpit,Operating,J00446,Sino - Cape Preston Iron,116.141306,-21.081327,410802,7668611,50,Fe Mag Fe2O3,Iron,IRON ORE,Sino Iron Mag,Y,Fe Mag Fe2O3,Y,IRON,O,Major Projects,Public,2155,FORTESCUE,SF50-06,YARRALOOLA,"KARRATHA, CITY OF","PILBARA, Development Region",8,ASHBURTON M.F.,Hamersley Basin,20260515
S0001224,Deepdale J,"Deepdale Mesa J Pits 1-12, J Extended",Mine,Openpit,Operating,J00484,Robe River - Deepdale,116.247364,-21.751424,422176,7594497,50,Fe,Iron,IRON ORE,Robe River - Deepdale,N,,Y,IRON,O,Major Projects,Public,2154,PANNAWONICA,SF50-06,YARRALOOLA,"ASHBURTON, SHIRE OF","PILBARA, Development Region",8,ASHBURTON M.F.,Hamersley Basin,20260515
S0001346,Wheelarra 4,Wheelarra 4,Mine,Openpit,Operating,J00573,Jimblebar-Wheelarra-Hashimoto / BHPB,120.13711,-23.380316,207351,7411475,51,Fe,Iron,IRON ORE,Jimblebar/Wheelarra,N,,Y,IRON,O,Major Projects,Public,2951,MURRAMUNDA,SF51-13,ROBERTSON,"EAST PILBARA, SHIRE OF","PILBARA, Development Region",52,PEAK HILL M.F.,Hamersley Basin,20260515
S0001402,Mt Whaleback,Mt Whaleback,Mine,Openpit,Operating,J00623,Newman / BHPB,119.67541,-23.365347,773505,7413501,50,Fe,Iron,IRON ORE,Newman,N,,Y,IRON,O,Major Projects,Public,2851,NEWMAN,SF50-16,NEWMAN,"EAST PILBARA, SHIRE OF","PILBARA, Development Region",52,PEAK HILL M.F.,Hamersley Basin,20260515
S0001607,MAC C West,MAC - Deposit C West Pit,Mine,Openpit,Operating,J00576,Mining Area C,118.962611,-22.929836,701262,7462903,50,Fe,Iron,IRON ORE,Mining Area C,N,,Y,IRON,O,Major Projects,Public,2652,MUNJINA,SF50-12,ROY HILL,"EAST PILBARA, SHIRE OF","PILBARA, Development Region",47,WEST PILBARA M.F.,Hamersley Basin,20260515
S0002984,Billiard,Billiard - Billiard South,Mine,Openpit,Operating,J00732,Yandicoogina / HI-Yandi,119.299578,-22.809561,736038,7475725,50,Fe,Iron,IRON ORE,Yandicoogina,N,,Y,IRON,O,Major Projects,Public,2752,WEELI WOLLI,SF50-12,ROY HILL,"EAST PILBARA, SHIRE OF","PILBARA, Development Region",47,WEST PILBARA M.F.,Hamersley Basin,20260515
S0003023,Marillana Ck E2,Marillana Creek Eastern Mesa 2,Mine,Openpit,Operating,J00571,Marillana Creek - Yandi / BHPB,119.113612,-22.741426,717051,7483555,50,Fe,Iron,IRON ORE,Marillana Creek - Yandi,N,,Y,IRON,O,Major Projects,Public,2752,WEELI WOLLI,SF50-12,ROY HILL,"EAST PILBARA, SHIRE OF","PILBARA, Development Region",47,WEST PILBARA M.F.,Hamersley Basin,20260515
S0020930,Newman Power,Newman Gas-Fired Power Station,Infrastructure,Power Plant,Operating,J00623,Newman / BHPB,119.708513,-23.344225,776935,7415779,50,Power,Energy,OTHER,Newman Gas,N,,Y,ENPL,O,Major Projects,Public,2851,NEWMAN,SF50-16,NEWMAN,"EAST PILBARA, SHIRE OF","PILBARA, Development Region",52,PEAK HILL M.F.,Hamersley Basin,20260515
S0022599,Susan Palmer,Susan Palmer (Balmoral Southern Block),Mine,Openpit,Proposed,J03378,Balmoral South / Australasian Resources,116.129482,-21.117823,409597,7664565,50,Fe Mag,Iron,IRON ORE,Balmoral South Mag,Y,Fe Mag,Y,IRON,P,Major Projects,Public,2155,FORTESCUE,SF50-06,YARRALOOLA,"KARRATHA, CITY OF","PILBARA, Development Region",8,ASHBURTON M.F.,Hamersley Basin,20260515
S0022982,NW Sector,Marillana - Northwest Sector,Mine,Openpit,Proposed,J03359,Marillana / Brockman - MRL JV,119.209612,-22.587486,727166,7500461,50,Fe,Iron,IRON ORE,Marillana,N,,Y,IRON,P,Major Projects,Public,2752,WEELI WOLLI,SF50-12,ROY HILL,"EAST PILBARA, SHIRE OF","PILBARA, Development Region",47,WEST PILBARA M.F.,Hamersley Basin,20260515
S0023221,Hardey Brockman,Hardey Brockman,Mine,Openpit,Proposed,J03418,Hardey / API,117.29112,-22.952741,529845,7461682,50,Fe,Iron,IRON ORE,Hardey,N,,Y,IRON,P,Major Projects,Public,2352,ROCKLEA,SF50-11,MOUNT BRUCE,"ASHBURTON, SHIRE OF","PILBARA, Development Region",47,WEST PILBARA M.F.,Hamersley Basin,20260515
S0023281,West End,Eliwana West End,Mine,Openpit,Operating,J03436,Western Hub / FMG,116.830564,-22.493673,482572,7512519,50,Fe,Iron,IRON ORE,Western Hub,N,,Y,IRON,O,Major Projects,Public,2253,FARQUHAR,SF50-10,WYLOO,"ASHBURTON, SHIRE OF","PILBARA, Development Region",47,WEST PILBARA M.F.,Hamersley Basin,20260515
S0023559,Kings,Kings-Solomon,Mine,Openpit,Operating,J01646,Solomon - Greater Solomon,117.869836,-22.159454,589687,7549267,50,Fe,Iron,IRON ORE,Solomon,N,,Y,IRON,O,Major Projects,Public,2453,MCRAE,SF50-11,MOUNT BRUCE,"ASHBURTON, SHIRE OF","PILBARA, Development Region",47,WEST PILBARA M.F.,Hamersley Basin,20260515
S0237402,Chichester Solar Farm,Chichester Solar Farm,Infrastructure,Other,Operating,J05516,Chichester Power,119.748401,-22.419358,782928,7518164,50,Power,Energy,OTHER,Chichester Power,N,,Y,ENPL,O,Major Projects,Public,2853,WARRIE,SF50-12,ROY HILL,"EAST PILBARA, SHIRE OF","PILBARA, Development Region",46,NULLAGINE,Hamersley Basin,20260515
S0237403,Power Substation,Roy Hill Power Substation,Infrastructure,Power Plant,Operating,J02889,Roy Hill Iron Ore,119.950167,-22.481549,803575,7510879,50,Power,Energy,OTHER,Roy Hill Power Substation,N,,Y,ENPL,O,Major Projects,Public,2853,WARRIE,SF50-12,ROY HILL,"EAST PILBARA, SHIRE OF","PILBARA, Development Region",46,NULLAGINE,Hamersley Basin,20260515
S0238495,PEG Power Station,Pilbara Energy Generation Power Station,Infrastructure,Power Plant,Operating,J06545,Pilbara Energy Generation Project,117.956378,-22.148309,598618,7550447,50,Power,Energy,OTHER,Pilbara Energy Generation Project,N,,Y,ENPL,O,Major Projects,Public,2453,MCRAE,SF50-11,MOUNT BRUCE,"ASHBURTON, SHIRE OF","PILBARA, Development Region",47,WEST PILBARA M.F.,Hamersley Basin,20260515
S0238785,Solar Farm,Gudai-Darri Solar Farm,Infrastructure,Power Plant,Operating,J00557,Gudai-Darri,119.091997,-22.529727,715160,7507032,50,Fe,Iron,IRON ORE,Gudai-Darri Solar Farm,N,,Y,ENPL,O,Major Projects,Public,2752,WEELI WOLLI,SF50-12,ROY HILL,"EAST PILBARA, SHIRE OF","PILBARA, Development Region",47,WEST PILBARA M.F.,Hamersley Basin,20260515
S0239697,Ridge E,Western Ridges E,Mine,Openpit,Proposed,J04564,Hancock / Alien,119.677494,-23.228025,773999,7428710,50,Fe,Iron,IRON ORE,Western Ridges,N,,Y,IRON,P,Major Projects,Public,2851,NEWMAN,SF50-16,NEWMAN,"EAST PILBARA, SHIRE OF","PILBARA, Development Region",47,WEST PILBARA M.F.,Hamersley Basin,20260515
S0239823,Bigge,Bigge - Cloudbreak,Mine,Openpit,Operating,J01407,East Pilbara Iron Ore / FMG,119.205939,-22.286145,727279,7533840,50,Fe,Iron,IRON ORE,East Pilbara Iron Ore,N,,Y,IRON,O,Major Projects,Public,2753,MOUNT MARSH,SF50-12,ROY HILL,"ASHBURTON, SHIRE OF","PILBARA, Development Region",45,MARBLE BAR,Hamersley Basin,20260515
S0223635,Delta 100,Blacksmith - Delta 100,Mine,Openpit,Proposed,J03678,Pilbara Iron (PIOP),117.47171,-22.136988,548643,7551935,50,Fe,Iron,IRON ORE,Pilbara Iron,N,,Y,IRON,P,Major Projects,Public,2353,JEERINAH,SF50-11,MOUNT BRUCE,"ASHBURTON, SHIRE OF","PILBARA, Development Region",47,WEST PILBARA M.F.,Hamersley Basin,20260515
S0019496,Woodside LNG,Woodside LNG Plant,Infrastructure,Processing Plant,Operating,J02379,Northwest Shelf / Woodside,116.778712,-20.592707,476939,7722911,50,LNG,Energy,PETROLEUM,Northwest Shelf LNG,N,,Y,PPPL,O,Major Projects,Public,2256,DAMPIER,SF50-02,DAMPIER,"KARRATHA, CITY OF","PILBARA, Development Region",47,WEST PILBARA M.F.,Fortescue Basin,20260515
S0021511,Yara Ammon Nitrate,Yara Technical Ammonium Nitrate Production Facility,Infrastructure,Processing Plant,Operating,J02584,Yara Nitrates JV,116.787589,-20.630081,477870,7718777,50,NH4NO3 HNO3 NH4,Other (MINEDEX non-minerals),CHEMICALS,Yara nitrate plant,N,,Y,MIPL,O,Major Projects,Public,2256,DAMPIER,SF50-02,DAMPIER,"KARRATHA, CITY OF","PILBARA, Development Region",47,WEST PILBARA M.F.,Fortescue Basin,20260515
S0022573,Pluto LNG,Pluto LNG Plant,Infrastructure,Processing Plant,Operating,J03260,Pluto LNG,116.768313,-20.613266,475859,7720634,50,LNG,Energy,PETROLEUM,Pluto LNG,N,,Y,PPPL,O,Major Projects,Public,2256,DAMPIER,SF50-02,DAMPIER,"KARRATHA, CITY OF","PILBARA, Development Region",47,WEST PILBARA M.F.,Fortescue Basin,20260515
S0021518,Burrup West/Perdaman,Burrup West Ammonia-Urea / Perdaman,Infrastructure,Processing Plant,Proposed,J02972,Karratha Ammonia-Urea / Perdaman,116.774034,-20.625255,476457,7719308,50,NH4,Other (MINEDEX non-minerals),PETROLEUM,Karratha Ammonia-Urea,N,,Y,MIPL,P,Major Projects,Public,2256,DAMPIER,SF50-02,DAMPIER,"KARRATHA, CITY OF","PILBARA, Development Region",47,WEST PILBARA M.F.,Fortescue Basin,20260515
S0001918,Halberts Main,Halberts Main Zone,Deposit,Unspecified,Undeveloped,J00919,Munglinup Graphite / MRC,120.858634,-33.663501,301455,6273096,51,Gr MgCO3 TGC,Industrial mineral,GRAPHITE,Munglinup Graphite,Y,Gr MgCO3 TGC,Y,INMI,P,Major Projects,Public,3030,OLDFIELD,SI51-05,RAVENSTHORPE,"ESPERANCE, SHIRE OF","GOLDFIELDS-ESPERANCE, Development Region",74,PHILLIPS RIVER M.F.,"Northern Foreland, Albany-Fraser Orogen",20260515
S0238745,Green Lantern,Green Lantern,Mine,Openpit,Operating,J00056,Central Norseman,121.795715,-32.480014,386841,6405718,51,Au Ag,Precious metal,GOLD,Central Norseman,N,,Y,PRME,O,Major Projects,Public,3233,NORSEMAN,SI51-02,NORSEMAN,"DUNDAS, SHIRE OF","GOLDFIELDS-ESPERANCE, Development Region",63,DUNDAS M.F.,"Northern Foreland, Albany-Fraser Orogen",20260515
S0001506,Wingellina,Wingellina - Claude Hills,Mine,Unspecified,Proposed,J00717,Wingellina,128.93931,-26.039626,493928,7119926,52,Ni Fe Co Sc,Steel alloy metal,NICKEL,Wingellina Ni Co Sc,Y,Ni Fe Co Sc,Y,STAM,P,Major Projects,Public,4645,BELL ROCK,SG52-10,COOPER,"NGAANYATJARRAKU, SHIRE OF","GOLDFIELDS-ESPERANCE, Development Region",69,WARBURTON M.F.,Warakurna Large Igneous Province,20260515
S0224540,Genesis,Genesis - Tuckabianna,Mine,Openpit,Care and Maintenance,J00347,Murchison / Westgold,118.138951,-27.461057,612541,6961981,50,Au,Precious metal,GOLD,Murchison - Tuckabianna,N,,Y,PRME,C,Major Projects,Public,2543,REEDY,SG50-15,CUE,"CUE, SHIRE OF","MID-WEST, Development Region",20,CUE,Youanmi Terrane,20260515
S0224582,Spotted Quoll UG,Spotted Quoll Main and North Underground,Mine,Decline,Care and Maintenance,J00757,Forrestania Nickel / Western Areas,119.677784,-32.478137,751649,6403405,50,Ni Co,Steel alloy metal,NICKEL,Forrestania Ni Co,Y,Ni Co,Y,STAM,C,Major Projects,Public,2833,HOLLAND,SI50-04,HYDEN,"KONDININ, SHIRE OF","WHEATBELT, Development Region",77,YILGARN M.F.,Youanmi Terrane,20260515
S0225867,Mt Bevan Magnetite,Mt Bevan Magnetite,Deposit,Unspecified,Undeveloped,J03467,Mt Bevan,120.341279,-29.086445,241207,6779517,51,Fe Mag,Iron,IRON ORE,Mt Bevan,Y,Fe Mag,Y,IRON,P,Major Projects,Public,2939,MOUNT MASON,SH51-05,MENZIES,"MENZIES, SHIRE OF","GOLDFIELDS-ESPERANCE, Development Region",29,MENZIES,Youanmi Terrane,20260515
S0229274,Break of Day,Break of Day,Mine,Openpit,Operating,J02146,Cue Gold,117.831788,-27.697294,582013,6936053,50,Au Ag,Precious metal,GOLD,Cue Gold,N,,Y,PRME,O,Major Projects,Public,2442,AUSTIN,SG50-15,CUE,"CUE, SHIRE OF","MID-WEST, Development Region",58,MT. MAGNET,Youanmi Terrane,20260515
S0230134,Woolbung Peak,Woolbung Peak,Mine,Openpit,Care and Maintenance,J04343,Twin Peaks,116.025219,-27.309032,403550,6978959,50,Fe,Iron,IRON ORE,Twin Peaks,N,,Y,IRON,C,Major Projects,Public,2143,MURGOO,SG50-14,MURGOO,"MURCHISON, SHIRE OF","MID-WEST, Development Region",59,YALGOO M.F.,Youanmi Terrane,20260515
S0230325,Egmont,Egmont - Medcalf,Mine,Openpit,Proposed,J00791,Medcalf - Bremer Range,120.782617,-32.538871,291768,6397664,51,Ti V Mag,Speciality metal,VANADIUM - TITANIUM,Medcalf – Bremer Range Ti V Mag,Y,Ti V Mag,Y,STAM,P,Major Projects,Public,3032,TAY,SI51-01,LAKE JOHNSTON,"DUNDAS, SHIRE OF","GOLDFIELDS-ESPERANCE, Development Region",63,DUNDAS M.F.,Youanmi Terrane,20260515
S0231045,Die Hardy North,Die Hardy North,Mine,Openpit,Operating,J02854,Marda / Southern Cross,119.409971,-29.953252,732580,6683952,50,Au Ag,Precious metal,GOLD,Marda,N,,Y,PRME,O,Major Projects,Public,2738,JOHNSTON RANGE,SH50-08,BARLEE,"YILGARN, SHIRE OF","WHEATBELT, Development Region",77,YILGARN M.F.,Youanmi Terrane,20260515
S0233080,Sandy Ridge / Tellus,Sandy Ridge / Tellus,Mine,Openpit,Under Development,J04723,Sandy Ridge Kaolin / Tellus,120.085354,-30.35609,219839,6638153,51,Kln,Industrial mineral,CLAYS,Sandy Ridge Kln,Y,Kln,Y,INMI,U,Major Projects,Public,2937,NEARANGING,SH51-09,KALGOORLIE,"COOLGARDIE, SHIRE OF","GOLDFIELDS-ESPERANCE, Development Region",16,KUNANALLING,Youanmi Terrane,20260515
S0234476,Deflector UG,Deflector Underground,Mine,Decline,Operating,J00147,Deflector,116.379451,-28.668979,439366,6828530,50,Au Cu Ag,Precious metal,GOLD,Deflector Au Cu Ag,Y,Au Cu Ag,Y,PRME,O,Major Projects,Public,2140,MELLENBYE,SH50-02,YALGOO,"YALGOO, SHIRE OF","MID-WEST, Development Region",59,YALGOO M.F.,Youanmi Terrane,20260515
S0000033,Big Bell UG,Big Bell Underground,Mine,Decline,Operating,J00017,Cue Gold - Central Murchison,117.655367,-27.318646,564839,6978101,50,Au Ag,Precious metal,GOLD,Cue Gold - Central Murchison,N,,Y,PRME,O,Major Projects,Public,2443,CUE,SG50-15,CUE,"CUE, SHIRE OF","MID-WEST, Development Region",20,CUE,Youanmi Terrane,20260515
S0000793,Youanmi Deeps,Youanmi Deeps,Mine,Decline,Shut,J00367,Youanmi Gold - OYG,118.839978,-28.610085,679899,6833829,50,Au Ag,Precious metal,GOLD,Youanmi,N,,Y,PRME,P,Major Projects,Public,2640,YOUANMI,SH50-04,YOUANMI,"SANDSTONE, SHIRE OF","MID-WEST, Development Region",57,BLACK RANGE,Youanmi Terrane,20260515
S0000866,Harbour View,Harbour View,Mine,Decline,Proposed,J00191,Ravensthorpe Gold,120.196414,-33.681787,240093,6269598,51,Au Cu Ag,Precious metal,GOLD,Ravensthorpe Au Cu Ag,Y,Au Cu Ag,Y,PRME,P,Major Projects,Public,2930,RAVENSTHORPE,SI51-05,RAVENSTHORPE,"RAVENSTHORPE, SHIRE OF","GOLDFIELDS-ESPERANCE, Development Region",74,PHILLIPS RIVER M.F.,Youanmi Terrane,20260515
S0001256,Gossan Hill U/G,Gossan Hill Portal,Mine,Decline,Operating,J00527,Golden Grove,116.962417,-28.765074,496331,6818041,50,Cu Zn Pb Ag Au,Base metal,COPPER - LEAD - ZINC,Golden Grove Cu Zn Pb Ag Au,Y,Cu Zn Pb Ag Au,Y,BAME,O,Major Projects,Public,2240,BADJA,SH50-02,YALGOO,"YALGOO, SHIRE OF","MID-WEST, Development Region",59,YALGOO M.F.,Youanmi Terrane,20260515
S0001758,Cove,Cove - Barrambie,Mine,Openpit,Proposed,J00789,Barrambie Vanadium-Titanium,119.121109,-27.433228,709661,6963790,50,V Ti Mag,Steel alloy metal,VANADIUM - TITANIUM,Barrambie V Ti Mag,Y,V Ti Mag,Y,STAM,P,Major Projects,Public,2743,YOUNO DOWNS,SG50-16,SANDSTONE,"SANDSTONE, SHIRE OF","MID-WEST, Development Region",57,BLACK RANGE,Youanmi Terrane,20260515
S0001764,Windimurra Northern,Windimurra Northern,Mine,Openpit,Proposed,J00793,Windimurra Vanadium,118.529969,-28.291607,650033,6869545,50,V Mag Fe,Steel alloy metal,VANADIUM - TITANIUM,Windimurra V Mag,Y,V Mag Fe,Y,STAM,P,Major Projects,Public,2641,WINDIMURRA,SH50-04,YOUANMI,"MOUNT MAGNET, SHIRE OF","MID-WEST, Development Region",58,MT. MAGNET,Youanmi Terrane,20260515
S0001774,Gabanintha Vanadium/AV,Gabanintha Vanadium / AVL,Mine,Openpit,Proposed,J00800,Australian Vanadium project  - Gabanintha,118.646265,-26.967599,663395,7016089,50,V Ti Mag Co Ni Cu,Steel alloy metal,VANADIUM - TITANIUM,Australian Vanadium V Ti Mag,Y,V Ti Mag Co Ni Cu,Y,STAM,P,Major Projects,Public,2644,GABANINTHA,SG50-12,GLENGARRY,"MEEKATHARRA, SHIRE OF","MID-WEST, Development Region",51,MEEKATHARRA,Youanmi Terrane,20260515
S0001820,Mulgine Trench,Mulgine Trench,Deposit,Unspecified,Undeveloped,J02784,Mt Mulgine Tungsten,116.961847,-29.172054,496290,6772951,50,W Mo Au Ag,Steel alloy metal,TUNGSTEN - MOLYBDENUM,Mt Mulgine W Mo Au Ag,Y,W Mo Au Ag,Y,STAM,P,Major Projects,Public,2239,ROTHSAY,SH50-06,PERENJORI,"PERENJORI, SHIRE OF","MID-WEST, Development Region",59,YALGOO M.F.,Youanmi Terrane,20260515
S0002167,Dowling Pit,Mt Cattlin - Dowling Openpit,Mine,Openpit,Care and Maintenance,J01005,Mt Cattlin Spodumene,120.033992,-33.562492,224651,6282410,51,Li Ta Nb,Speciality metal,TIN - TANTALUM - LITHIUM,Mt Cattlin Li Ta Nb,Y,Li Ta Nb,Y,SPME,C,Major Projects,Public,2930,RAVENSTHORPE,SI51-05,RAVENSTHORPE,"RAVENSTHORPE, SHIRE OF","GOLDFIELDS-ESPERANCE, Development Region",74,PHILLIPS RIVER M.F.,Youanmi Terrane,20260515
S0003180,Hornet UG,Hornet Underground,Deposit,Unspecified,Undeveloped,J00245,Mt Gibson Gold,117.181672,-29.720641,517571,6712156,50,Au Ag,Precious metal,GOLD,Mt Gibson Gold,N,,Y,PRME,P,Major Projects,Public,2338,MOUNT GIBSON,SH50-07,NINGHAN,"YALGOO, SHIRE OF","MID-WEST, Development Region",59,YALGOO M.F.,Youanmi Terrane,20260515
S0004178,Cosmic Boy Plant,Cosmic Boy Plant,Infrastructure,Processing Plant,Care and Maintenance,J00757,Forrestania Nickel / Western Areas,119.742808,-32.580907,757467,6391851,50,Ni,Steel alloy metal,NICKEL,Cosmic Boy Concentrator,N,,Y,MIPL,O,Major Projects,Public,2832,IRONCAP,SI50-04,HYDEN,"KONDININ, SHIRE OF","WHEATBELT, Development Region",77,YILGARN M.F.,Youanmi Terrane,20260515
S0006503,Eureka,Eureka - Sandstone,Mine,Openpit,Proposed,J05290,Central Sandstone / Aurumin,119.248976,-28.095717,720961,6890151,50,Au Ag,Precious metal,GOLD,Central Sandstone,N,,Y,PRME,P,Major Projects,Public,2741,ATLEY,SH50-04,YOUANMI,"SANDSTONE, SHIRE OF","MID-WEST, Development Region",57,BLACK RANGE,Youanmi Terrane,20260515
S0006685,Shoemaker-Levy,Shoemaker - Levy,Mine,Openpit,Care and Maintenance,J02145,Ravensthorpe - First Quantum,120.325462,-33.576402,251758,6281604,51,Ni Co Zn Cu,Steel alloy metal,NICKEL,Ravensthorpe Ni Co Zn Cu,Y,Ni Co Zn Cu,Y,STAM,C,Major Projects,Public,2930,RAVENSTHORPE,SI51-05,RAVENSTHORPE,"RAVENSTHORPE, SHIRE OF","GOLDFIELDS-ESPERANCE, Development Region",74,PHILLIPS RIVER M.F.,Youanmi Terrane,20260515
S0019502,Victory Bore,Victory Bore,Deposit,Unspecified,Undeveloped,J02617,Victory Bore,118.989044,-28.2619,695115,6872181,50,V Mag Fe Ti,Steel alloy metal,VANADIUM - TITANIUM,Victory Bore V Ti Mag,Y,V Mag Fe Ti,Y,STAM,P,Major Projects,Public,2641,WINDIMURRA,SH50-04,YOUANMI,"SANDSTONE, SHIRE OF","MID-WEST, Development Region",57,BLACK RANGE,Youanmi Terrane,20260515
S0020742,Karara Magnetite,Karara - Blue Hills Magnetite,Mine,Openpit,Operating,J02815,Karara - Blue Hills / Gindalbie,116.774437,-29.187531,478070,6771216,50,Fe Mag,Iron,IRON ORE,Karara – Blue Hills Mag,Y,Fe Mag,Y,IRON,O,Major Projects,Public,2239,ROTHSAY,SH50-06,PERENJORI,"PERENJORI, SHIRE OF","MID-WEST, Development Region",59,YALGOO M.F.,Youanmi Terrane,20260515
S0022045,Extension Hill South,Extension Hill South,Mine,Openpit,Operating,J00596,Mt Gibson Iron,117.166209,-29.588477,516096,6726801,50,Fe Mag,Iron,IRON ORE,Mt Gibson Iron Mag,Y,Fe Mag,Y,IRON,O,Major Projects,Public,2338,MOUNT GIBSON,SH50-07,NINGHAN,"YALGOO, SHIRE OF","MID-WEST, Development Region",59,YALGOO M.F.,Youanmi Terrane,20260515
S0022686,C4,C4 - Wiluna West,Mine,Openpit,Operating,J03041,Wiluna West Iron,119.937312,-26.680347,792322,7045602,50,Fe,Iron,IRON ORE,Wiluna West,N,,Y,IRON,O,Major Projects,Public,2844,MEREWETHER,SG50-12,GLENGARRY,"WILUNA, SHIRE OF","MID-WEST, Development Region",53,WILUNA,Youanmi Terrane,20260515
S0022914,Snark,Snark – Lake Giles,Mine,Openpit,Proposed,J03340,Lake Giles Magnetite and Ularring Hematite,119.921925,-29.811568,782406,6698512,50,Fe Mag,Iron,IRON ORE,Lake Giles Mag,Y,Fe Mag,Y,IRON,P,Major Projects,Public,2838,LAKE GILES,SH50-08,BARLEE,"MENZIES, SHIRE OF","GOLDFIELDS-ESPERANCE, Development Region",30,ULARRING,Youanmi Terrane,20260515
S0023105,Iron Ridge,Iron Ridge,Mine,Openpit,Operating,J05539,Iron Ridge,117.684512,-26.943926,567949,7019591,50,Fe Mn Ti,Iron,IRON ORE,Iron Ridge,N,,Y,IRON,O,Major Projects,Public,2444,MADOONGA,SG50-11,BELELE,"CUE, SHIRE OF","MID-WEST, Development Region",20,CUE,Youanmi Terrane,20260515
S0023170,Shine,Shine,Mine,Openpit,Operating,J04475,Shine,116.936541,-28.85152,493810,6808463,50,Fe Mag Ti Mn,Iron,IRON ORE,Shine Mag,Y,Fe Mag Ti Mn,Y,IRON,O,Major Projects,Public,2240,BADJA,SH50-02,YALGOO,"YALGOO, SHIRE OF","MID-WEST, Development Region",59,YALGOO M.F.,Youanmi Terrane,20260515
S0023347,Mungada East Ext,Mungada East Extension,Mine,Openpit,Operating,J02673,Koolanooka & Blue Hills - Mungada / Sinosteel,116.888661,-29.140211,489170,6776474,50,Fe,Iron,IRON ORE,Koolanooka and Blue Hills,N,,Y,IRON,O,Major Projects,Public,2239,ROTHSAY,SH50-06,PERENJORI,"PERENJORI, SHIRE OF","MID-WEST, Development Region",59,YALGOO M.F.,Youanmi Terrane,20260515
S0237036,Eridanus,Eridanus,Mine,Openpit,Operating,J00156,Mt Magnet,117.781685,-28.074872,576805,6894256,50,Au Ag,Precious metal,GOLD,Mt Magnet,N,,Y,PRME,O,Major Projects,Public,2441,MOUNT MAGNET,SH50-03,KIRKALOCKA,"MOUNT MAGNET, SHIRE OF","MID-WEST, Development Region",58,MT. MAGNET,Youanmi Terrane,20260515
S0023569,Mt Caudan Central,Mt Caudan Central Open Pit,Mine,Openpit,Operating,J03500,Parker Range - Mt Caudan Iron,119.555631,-31.614555,742433,6499450,50,Fe,Iron,IRON ORE,Parker Range - Mt Caudan Iron,N,,Y,IRON,O,Major Projects,Public,2834,CHERITONS FIND,SH50-16,SOUTHERN CROSS,"YILGARN, SHIRE OF","WHEATBELT, Development Region",77,YILGARN M.F.,Youanmi Terrane,20260515
S0238461,Power Plant,Iron Ridge Power Plant,Infrastructure,Power Plant,Operating,J05539,Iron Ridge,117.679335,-26.954592,567428,7018412,50,Fe,Iron,IRON ORE,Iron Ridge Power Plant,N,,Y,ENPL,O,Major Projects,Public,2444,MADOONGA,SG50-11,BELELE,"CUE, SHIRE OF","MID-WEST, Development Region",20,CUE,Youanmi Terrane,20260515
S0238929,Power Station,Tuckabianna Power Station,Infrastructure,Power Plant,Operating,J00347,Murchison / Westgold,118.146625,-27.455809,613304,6962555,50,Au,Precious metal,GOLD,Tuckabianna Power Station,N,,Y,ENPL,O,Major Projects,Public,2543,REEDY,SG50-15,CUE,"CUE, SHIRE OF","MID-WEST, Development Region",20,CUE,Youanmi Terrane,20260515
S0234095,Earl Grey Lithium Pit,Earl Grey Lithium Mine Pit,Mine,Openpit,Operating,J04872,Mt Holland Lithium / Wesfarmers & SQM,119.747965,-32.092628,759342,6445990,50,Li,Speciality metal,TIN - TANTALUM - LITHIUM,Mt Holland Lithium,Y,Li,Y,SPME,O,Major Projects,Public,2833,HOLLAND,SI50-04,HYDEN,"YILGARN, SHIRE OF","WHEATBELT, Development Region",77,YILGARN M.F.,Youanmi Terrane,20260515
S0237465,Penny North UG,Penny North Underground,Mine,Decline,Operating,J05525,Penny Gold,118.810258,-28.853313,676583,6806919,50,Au Ag,Precious metal,GOLD,Penny Gold,N,,Y,PRME,O,Major Projects,Public,2640,YOUANMI,SH50-04,YOUANMI,"SANDSTONE, SHIRE OF","MID-WEST, Development Region",57,BLACK RANGE,Youanmi Terrane,20260515
S0224710,Deception,Deception / Cliffs,Mine,Openpit,Operating,J00559,Koolyanobbing Iron,119.280926,-29.850385,720348,6695609,50,Fe Hem,Iron,IRON ORE,Koolyanobbing Iron,N,,Y,IRON,O,Major Projects,Public,2738,JOHNSTON RANGE,SH50-08,BARLEE,"MENZIES, SHIRE OF","GOLDFIELDS-ESPERANCE, Development Region",77,YILGARN M.F.,Youanmi Terrane,20260515
S0240820,Power Station,Bluebird Power Station - Hybrid Power and Powerline,Infrastructure,Power Plant,Operating,J00017,Cue Gold - Central Murchison,118.433116,-26.710332,642558,7044845,50,Power,Energy,OTHER,Bluebird Power Station,N,,Y,ENPL,O,Major Projects,Public,2544,MEEKATHARRA,SG50-11,BELELE,"MEEKATHARRA, SHIRE OF","MID-WEST, Development Region",51,MEEKATHARRA,Youanmi Terrane,20260515
S0241343,Rhapsody,Rhapsody,Mine,Openpit,Operating,J00226,Marvel Loch - Southern Cross,119.541813,-31.501183,741414,6512052,50,Au Ag,Precious metal,GOLD,Marvel Loch - Southern Cross,N,,Y,PRME,O,Major Projects,Public,2834,CHERITONS FIND,SH50-16,SOUTHERN CROSS,"YILGARN, SHIRE OF","WHEATBELT, Development Region",77,YILGARN M.F.,Youanmi Terrane,20260515
S0241815,Sandy Ridge Solar Panel Farm / Tellus,Sandy Ridge Kaolin Solar Panel Farm / Tellus,Infrastructure,Power Plant,Under Development,J04723,Sandy Ridge Kaolin / Tellus,120.097709,-30.366087,221055,6637074,51,Kln,Industrial mineral,CLAYS,Sandy Ridge Solar Farm,N,,Y,ENPL,O,Major Projects,Public,2937,NEARANGING,SH51-09,KALGOORLIE,"COOLGARDIE, SHIRE OF","GOLDFIELDS-ESPERANCE, Development Region",16,KUNANALLING,Youanmi Terrane,20260515
S0243541,Solar Farm,Mt Magnet Solar Farm,Infrastructure,Power Plant,Operating,J00156,Mt Magnet,117.833866,-28.034318,581963,6898715,50,Power,Energy,OTHER,Mt Magnet Solar Farm,N,,Y,ENPL,O,Major Projects,Public,2441,MOUNT MAGNET,SH50-03,KIRKALOCKA,"MOUNT MAGNET, SHIRE OF","MID-WEST, Development Region",58,MT. MAGNET,Youanmi Terrane,20260515
S0243542,Diesal Power Plant,Mt Magnet Diesal Power Plant,Infrastructure,Power Plant,Operating,J00156,Mt Magnet,117.8187,-28.029764,580476,6899229,50,Power,Energy,OTHER,Mt Magnet Diesal Power Plant,N,,Y,ENPL,O,Major Projects,Public,2441,MOUNT MAGNET,SH50-03,KIRKALOCKA,"MOUNT MAGNET, SHIRE OF","MID-WEST, Development Region",58,MT. MAGNET,Youanmi Terrane,20260515
S0023098,W11,W11 - Beebyn,Mine,Openpit,Operating,J00755,Weld Range Iron Ore,117.837012,-26.873566,583138,7027293,50,Fe,Iron,IRON ORE,Weld Range Iron Ore,N,,Y,IRON,P,Major Projects,Public,2444,MADOONGA,SG50-11,BELELE,"CUE, SHIRE OF","MID-WEST, Development Region",51,MEEKATHARRA,Youanmi Terrane,20260515
S0236372,Crown Prince W,Crown Prince West,Mine,Openpit,Operating,J01772,Garden Gully / New Murchison,118.464348,-26.448724,645996,7073790,50,Au Ag,Precious metal,GOLD,Garden Gully,N,,Y,PRME,P,Major Projects,Public,2545,TIERACO,SG50-11,BELELE,"MEEKATHARRA, SHIRE OF","MID-WEST, Development Region",51,MEEKATHARRA,Youanmi Terrane,20260515
S0229694,Rebecca,Rebecca,Deposit,Unspecified,Undeveloped,J04276,Rebecca,122.863141,-30.358612,486848,6641469,51,Au Ag,Precious metal,GOLD,Rebecca,N,,Y,PRME,P,Major Projects,Public,3437,PINJIN,SH51-10,KURNALPI,"KALGOORLIE-BOULDER, CITY OF","GOLDFIELDS-ESPERANCE, Development Region",28,KURNALPI,Eastern Goldfields Superterrane,20260515
S0230607,Neptune,Neptune / St Ives,Mine,Openpit,Operating,J00178,Kambalda - St Ives,121.74553,-31.300004,380613,6536470,51,Au Ag,Precious metal,GOLD,St Ives,N,,Y,PRME,O,Major Projects,Public,3235,LAKE LEFROY,SH51-14,WIDGIEMOOLTHA,"COOLGARDIE, SHIRE OF","GOLDFIELDS-ESPERANCE, Development Region",15,COOLGARDIE,Eastern Goldfields Superterrane,20260515
S0231406,Power Plant,Daisy Milano Power Plant,Infrastructure,Power Plant,Operating,J00251,Randalls - Mt Monger,121.927461,-31.013166,397620,6568445,51,Power,Energy,OTHER,Daisy Milano Power Plant,N,,Y,ENPL,O,Major Projects,Public,3235,LAKE LEFROY,SH51-14,WIDGIEMOOLTHA,"KALGOORLIE-BOULDER, CITY OF","GOLDFIELDS-ESPERANCE, Development Region",26,EAST COOLGARDIE,Eastern Goldfields Superterrane,20260515
S0231766,Karari UG,Karari Underground Main and Exploration Declines,Mine,Decline,Operating,J02241,Carosue Dam - Khartoum,122.359244,-30.159159,438299,6663405,51,Au Ag,Precious metal,GOLD,Carosue Dam,N,,Y,PRME,O,Major Projects,Public,3337,MULGABBIE,SH51-10,KURNALPI,"KALGOORLIE-BOULDER, CITY OF","GOLDFIELDS-ESPERANCE, Development Region",28,KURNALPI,Eastern Goldfields Superterrane,20260515
S0232136,Millennium UG,Millennium,Mine,Decline,Operating,J00358,Kundana - White Flag,121.237823,-30.707865,331248,6601448,51,Au Ag,Precious metal,GOLD,Kundana - White Flag,N,,Y,PRME,O,Major Projects,Public,3136,KALGOORLIE,SH51-09,KALGOORLIE,"COOLGARDIE, SHIRE OF","GOLDFIELDS-ESPERANCE, Development Region",16,KUNANALLING,Eastern Goldfields Superterrane,20260515
S0232513,Power Station,Sunrise Dam Power Station,Infrastructure,Power Plant,Operating,J01703,Sunrise Dam,122.439058,-29.092441,445412,6781643,51,Au,Precious metal,GOLD,Sunrise Dam Power Station,N,,Y,ENPL,O,Major Projects,Public,3339,LAKE CAREY,SH51-06,EDJUDINA,"LAVERTON, SHIRE OF","GOLDFIELDS-ESPERANCE, Development Region",39,MT. MORGANS,Eastern Goldfields Superterrane,20260515
S0232728,Zoroastrian Central,Zoroastrian Central,Mine,Openpit,Proposed,J02816,Kalgoorlie North,121.284819,-30.337147,335125,6642608,51,Au Ag,Precious metal,GOLD,Kalgoorlie North,N,,Y,PRME,P,Major Projects,Public,3137,BARDOC,SH51-09,KALGOORLIE,"KALGOORLIE-BOULDER, CITY OF","GOLDFIELDS-ESPERANCE, Development Region",24,BROAD ARROW M.F.,Eastern Goldfields Superterrane,20260515
S0232796,Power Station,Granny Smith Power Station,Infrastructure,Power Plant,Operating,J00134,Granny Smith,122.357394,-28.843291,437315,6809207,51,Au,Precious metal,GOLD,Granny Smith Power Station,N,,Y,ENPL,O,Major Projects,Public,3340,LAVERTON,SH51-02,LAVERTON,"LAVERTON, SHIRE OF","GOLDFIELDS-ESPERANCE, Development Region",38,MT. MARGARET,Eastern Goldfields Superterrane,20260515
S0234331,Beta Hunt,Beta Hunt Underground Gold,Mine,Decline,Operating,J04930,Kambalda Gold / RNC,121.689952,-31.242525,375247,6542780,51,Au Ag Ni,Precious metal,GOLD,Kambalda Au Ag Ni,Y,Au Ag Ni,Y,PRME,O,Major Projects,Public,3235,LAKE LEFROY,SH51-14,WIDGIEMOOLTHA,"COOLGARDIE, SHIRE OF","GOLDFIELDS-ESPERANCE, Development Region",15,COOLGARDIE,Eastern Goldfields Superterrane,20260515
S0234340,Power Plant,Rubicon Power Plant,Infrastructure,Power Plant,Proposed,J01718,Kundana East,121.261449,-30.746316,333577,6597221,51,Power,Energy,OTHER,Rubicon Power Plant,N,,Y,ENPL,O,Major Projects,Public,3136,KALGOORLIE,SH51-09,KALGOORLIE,"COOLGARDIE, SHIRE OF","GOLDFIELDS-ESPERANCE, Development Region",15,COOLGARDIE,Eastern Goldfields Superterrane,20260515
S0234764,Kamperman,Kamperman,Deposit,Unspecified,Undeveloped,J03724,Feysville,121.583848,-30.931857,364703,6577091,51,Au Ag,Precious metal,GOLD,Feysville,N,,Y,PRME,P,Major Projects,Public,3236,KANOWNA,SH51-10,KURNALPI,"KALGOORLIE-BOULDER, CITY OF","GOLDFIELDS-ESPERANCE, Development Region",26,EAST COOLGARDIE,Eastern Goldfields Superterrane,20260515
S0234790,Power Station,Kundana Power Station,Infrastructure,Power Plant,Operating,J00358,Kundana - White Flag,121.240802,-30.711329,331540,6601068,51,Power,Energy,OTHER,Kundana Power Station,N,,Y,ENPL,O,Major Projects,Public,3136,KALGOORLIE,SH51-09,KALGOORLIE,"COOLGARDIE, SHIRE OF","GOLDFIELDS-ESPERANCE, Development Region",16,KUNANALLING,Eastern Goldfields Superterrane,20260515
S0235008,Cannon UG,Cannon Underground,Mine,Decline,Proposed,J03557,Bulong South Gold,121.762912,-30.816281,381670,6590104,51,Au Ag,Precious metal,GOLD,Bulong South Gold,N,,Y,PRME,P,Major Projects,Public,3236,KANOWNA,SH51-10,KURNALPI,"KALGOORLIE-BOULDER, CITY OF","GOLDFIELDS-ESPERANCE, Development Region",25,BULONG,Eastern Goldfields Superterrane,20260515
S0000053,Southern Stockworks,Boorara Open Pit - Southern Stockworks,Mine,Openpit,Care and Maintenance,J02851,Boorara / Horizon,121.644094,-30.80928,370294,6590748,51,Au Ag,Precious metal,GOLD,Boorara,N,,Y,PRME,O,Major Projects,Public,3236,KANOWNA,SH51-10,KURNALPI,"KALGOORLIE-BOULDER, CITY OF","GOLDFIELDS-ESPERANCE, Development Region",26,EAST COOLGARDIE,Eastern Goldfields Superterrane,20260515
S0000137,Cork Tree Well,Cork Tree Well,Mine,Openpit,Shut,J00075,Cork Tree Well - Delta,122.404413,-28.338636,441624,6865141,51,Au Ag,Precious metal,GOLD,Cork Tree Well,N,,Y,PRME,P,Major Projects,Public,3341,MOUNT VARDEN,SH51-02,LAVERTON,"LAVERTON, SHIRE OF","GOLDFIELDS-ESPERANCE, Development Region",38,MT. MARGARET,Eastern Goldfields Superterrane,20260515
S0000258,Goongarrie Lady,Goongarrie Lady,Mine,Openpit,Operating,J04956,Goongarrie Lady,121.184491,-30.081341,325027,6670812,51,Au Ag,Precious metal,GOLD,Goongarrie Lady,N,,Y,PRME,O,Major Projects,Public,3137,BARDOC,SH51-09,KALGOORLIE,"MENZIES, SHIRE OF","GOLDFIELDS-ESPERANCE, Development Region",29,MENZIES,Eastern Goldfields Superterrane,20260515
S0000352,Jeffreys,Jeffreys Find,Mine,Openpit,Care and Maintenance,J00170,Jeffreys Find,122.151147,-31.94642,419773,6465189,51,Au Ag,Precious metal,GOLD,Jeffreys Find,N,,Y,PRME,O,Major Projects,Public,3334,YARDINA,SH51-14,WIDGIEMOOLTHA,"DUNDAS, SHIRE OF","GOLDFIELDS-ESPERANCE, Development Region",63,DUNDAS M.F.,Eastern Goldfields Superterrane,20260515
S0000357,Jupiter,Jupiter - Joanne - Doublejay,Mine,Openpit,Operating,J00256,Mt Morgans,122.219297,-28.807175,423818,6813127,51,Au Ag,Precious metal,GOLD,Mt Morgans,N,,Y,PRME,O,Major Projects,Public,3340,LAVERTON,SH51-02,LAVERTON,"LAVERTON, SHIRE OF","GOLDFIELDS-ESPERANCE, Development Region",39,MT. MORGANS,Eastern Goldfields Superterrane,20260515
S0000404,Newhaven,Newhaven,Mine,Openpit,Operating,J01338,Phillips Find,120.965996,-30.612844,305022,6611541,51,Au Ag,Precious metal,GOLD,Phillips Find,N,,Y,PRME,O,Major Projects,Public,3036,DUNNSVILLE,SH51-09,KALGOORLIE,"COOLGARDIE, SHIRE OF","GOLDFIELDS-ESPERANCE, Development Region",16,KUNANALLING,Eastern Goldfields Superterrane,20260515
S0000426,Flushing Meadows,Flushing Meadows,Deposit,Unspecified,Undeveloped,J01616,Ironstone Well,120.781908,-26.840597,279589,7029293,51,Au Ag,Precious metal,GOLD,Ironstone Well,N,,Y,PRME,P,Major Projects,Public,3044,LAKE VIOLET,SG51-09,WILUNA,"WILUNA, SHIRE OF","MID-WEST, Development Region",53,WILUNA,Eastern Goldfields Superterrane,20260515
S0000584,Malcolm,Malcolm,Mine,Openpit,Operating,J00270,Malcolm Challenger Gold - Murrin Murrin,121.817764,-28.899707,384735,6802551,51,Au,Precious metal,GOLD,Malcolm Challenger Gold,N,,Y,PRME,O,Major Projects,Public,3240,MINERIE,SH51-02,LAVERTON,"LEONORA, SHIRE OF","GOLDFIELDS-ESPERANCE, Development Region",39,MT. MORGANS,Eastern Goldfields Superterrane,20260515
S0000709,Second Fortune,Second Fortune,Mine,Decline,Operating,J02325,Linden Gold,122.435829,-29.376492,445250,6750169,51,Au Ag,Precious metal,GOLD,Linden Gold,N,,Y,PRME,O,Major Projects,Public,3339,LAKE CAREY,SH51-06,EDJUDINA,"MENZIES, SHIRE OF","GOLDFIELDS-ESPERANCE, Development Region",39,MT. MORGANS,Eastern Goldfields Superterrane,20260515
S0000811,Anglo Saxon,Anglo Saxon - Trouser Legs,Mine,Openpit,Care and Maintenance,J00424,Anglo Saxon - Trouser Legs,122.731489,-30.076767,474123,6672678,51,Au Ag,Precious metal,GOLD,Anglo Saxon - Trouser Legs,N,,Y,PRME,O,Major Projects,Public,3437,PINJIN,SH51-10,KURNALPI,"MENZIES, SHIRE OF","GOLDFIELDS-ESPERANCE, Development Region",31,YERILLA,Eastern Goldfields Superterrane,20260515
S0000849,Greenfields Pit,Greenfields Openpit,Mine,Openpit,Operating,J00014,Coolgardie Gold / Focus,121.200923,-30.932811,328115,6576457,51,Au Ag,Precious metal,GOLD,Coolgardie Gold,N,,Y,PRME,O,Major Projects,Public,3136,KALGOORLIE,SH51-09,KALGOORLIE,"COOLGARDIE, SHIRE OF","GOLDFIELDS-ESPERANCE, Development Region",15,COOLGARDIE,Eastern Goldfields Superterrane,20260515
S0001112,Emu,Emu - Bottle Creek,Mine,Openpit,Operating,J00028,Bottle Creek,120.44681,-29.154026,251646,6772252,51,Au Ag,Precious metal,GOLD,Bottle Creek,N,,Y,PRME,O,Major Projects,Public,2939,MOUNT MASON,SH51-05,MENZIES,"MENZIES, SHIRE OF","GOLDFIELDS-ESPERANCE, Development Region",29,MENZIES,Eastern Goldfields Superterrane,20260515
S0001178,Black Swan,Black Swan - Gosling,Mine,Openpit,Proposed,J00452,Silver Swan - Black Swan,121.648884,-30.393485,370199,6636838,51,Ni,Steel alloy metal,NICKEL,Silver Swan – Black Swan Ni,Y,Ni,Y,STAM,P,Major Projects,Public,3237,GINDALBIE,SH51-10,KURNALPI,"KALGOORLIE-BOULDER, CITY OF","GOLDFIELDS-ESPERANCE, Development Region",27,KANOWNA,Eastern Goldfields Superterrane,20260515
S0001288,Durkin N,Durkin North,Mine,Decline,Care and Maintenance,J02628,Kambalda / Mincor,121.661211,-31.164036,372405,6551448,51,Ni Cu Co,Steel alloy metal,NICKEL,Kambalda Ni Cu Co,Y,Ni Cu Co,Y,STAM,C,Major Projects,Public,3235,LAKE LEFROY,SH51-14,WIDGIEMOOLTHA,"KALGOORLIE-BOULDER, CITY OF","GOLDFIELDS-ESPERANCE, Development Region",26,EAST COOLGARDIE,Eastern Goldfields Superterrane,20260515
S0001467,Spargoville 5A,Spargoville 5A,Mine,Openpit,Proposed,J00677,Spargoville Nickel,121.506415,-31.353794,357935,6530224,51,Ni Cu Co Pt Pd,Steel alloy metal,NICKEL,Spargoville Ni Cu Co PGE,Y,Ni Cu Co Pt Pd,Y,SPME,P,Major Projects,Public,3235,LAKE LEFROY,SH51-14,WIDGIEMOOLTHA,"COOLGARDIE, SHIRE OF","GOLDFIELDS-ESPERANCE, Development Region",15,COOLGARDIE,Eastern Goldfields Superterrane,20260515
S0001585,Perseverance UG,Perseverance  Underground,Mine,Decline,Care and Maintenance,J00440,Leinster,120.705608,-27.818105,273998,6920835,51,Ni Cu Gsp,Steel alloy metal,NICKEL,Leinster Ni Cu,Y,Ni Cu Gsp,Y,STAM,C,Major Projects,Public,3042,SIR SAMUEL,SG51-13,SIR SAMUEL,"LEONORA, SHIRE OF","GOLDFIELDS-ESPERANCE, Development Region",36,LAWLERS,Eastern Goldfields Superterrane,20260515
S0001667,Mt Keith Main Pit,Mt Keith Open Pit,Mine,Openpit,Care and Maintenance,J00756,Mt Keith / BHP Billiton,120.54175,-27.229585,256558,6985745,51,Ni,Steel alloy metal,NICKEL,Mt Keith Ni,Y,Ni,Y,STAM,C,Major Projects,Public,3043,MOUNT KEITH,SG51-13,SIR SAMUEL,"WILUNA, SHIRE OF","MID-WEST, Development Region",53,WILUNA,Eastern Goldfields Superterrane,20260515
S0001691,Kalgoorlie Ni Smelter,Kalgoorlie Nickel Smelter,Infrastructure,Processing Plant,Care and Maintenance,J00766,Kalgoorlie Nickel Smelter,121.484507,-30.874787,355125,6583292,51,Ni,Steel alloy metal,NICKEL,Kalgoorlie nickel smelter,N,,Y,MIPL,O,Major Projects,Public,3136,KALGOORLIE,SH51-09,KALGOORLIE,"KALGOORLIE-BOULDER, CITY OF","GOLDFIELDS-ESPERANCE, Development Region",26,EAST COOLGARDIE,Eastern Goldfields Superterrane,20260515
S0002383,Sons of Gwalia UG,Sons of Gwalia Underground,Mine,Decline,Operating,J00330,Gwalia - Leonora,121.333484,-28.918407,337542,6799911,51,Au Ag,Precious metal,GOLD,Gwalia–Leonora,N,,Y,PRME,O,Major Projects,Public,3140,LEONORA,SH51-01,LEONORA,"LEONORA, SHIRE OF","GOLDFIELDS-ESPERANCE, Development Region",37,MT. MALCOLM,Eastern Goldfields Superterrane,20260515
S0002432,Lake Cowan South,Lake Cowan South Gypsum - M63/148,Mine,Openpit,Operating,J01324,Lake Cowan Gypsum / Whitfield,121.741166,-32.233405,381394,6432998,51,Gp,Industrial mineral,GYPSUM,Lake Cowan Gp,Y,Gp,Y,INMI,O,Major Projects,Public,3233,NORSEMAN,SI51-02,NORSEMAN,"DUNDAS, SHIRE OF","GOLDFIELDS-ESPERANCE, Development Region",63,DUNDAS M.F.,Eastern Goldfields Superterrane,20260515
S0002501,Tims Find,Tims Find,Mine,Openpit,Proposed,J04342,Mt Ida South,120.530612,-29.168561,259834,6770816,51,Au Ag,Precious metal,GOLD,Mt Ida South,N,,Y,PRME,P,Major Projects,Public,3039,BALLARD,SH51-05,MENZIES,"MENZIES, SHIRE OF","GOLDFIELDS-ESPERANCE, Development Region",29,MENZIES,Eastern Goldfields Superterrane,20260515
S0002815,Daisy-Milano,Daisy - Milano,Mine,Decline,Operating,J00251,Randalls - Mt Monger,121.921372,-31.013124,397039,6568444,51,Au Ag,Precious metal,GOLD,Randalls - Mt Monger,N,,Y,PRME,O,Major Projects,Public,3235,LAKE LEFROY,SH51-14,WIDGIEMOOLTHA,"KALGOORLIE-BOULDER, CITY OF","GOLDFIELDS-ESPERANCE, Development Region",26,EAST COOLGARDIE,Eastern Goldfields Superterrane,20260515
S0003101,Kanowna Belle,Kanowna Belle,Mine,Decline,Operating,J00181,Kanowna - Golden Valley,121.578017,-30.60898,363691,6612870,51,Au Ag,Precious metal,GOLD,Kanowna - Golden Valley,N,,Y,PRME,O,Major Projects,Public,3236,KANOWNA,SH51-10,KURNALPI,"KALGOORLIE-BOULDER, CITY OF","GOLDFIELDS-ESPERANCE, Development Region",27,KANOWNA,Eastern Goldfields Superterrane,20260515
S0003946,Gordon-Sirdar,Gordon-Sirdar Openpit,Mine,Openpit,Operating,J01307,Gordon - Sirdar,121.594507,-30.450334,365053,6630474,51,Au Ag,Precious metal,GOLD,Gordon-Sirdar,N,,Y,PRME,O,Major Projects,Public,3237,GINDALBIE,SH51-10,KURNALPI,"KALGOORLIE-BOULDER, CITY OF","GOLDFIELDS-ESPERANCE, Development Region",27,KANOWNA,Eastern Goldfields Superterrane,20260515
S0004113,Lewis,Lewis - Cardinia,Mine,Openpit,Proposed,J06760,Bruno-Lewis,121.59805,-28.797447,363177,6813649,51,Au Ag Te S,Precious metal,GOLD,Bruno-Lewis,N,,Y,PRME,P,Major Projects,Public,3240,MINERIE,SH51-02,LAVERTON,"LEONORA, SHIRE OF","GOLDFIELDS-ESPERANCE, Development Region",37,MT. MALCOLM,Eastern Goldfields Superterrane,20260515
S0004360,Blue Peter Pit 3,Blue Peter,Mine,Unspecified,Care and Maintenance,J00240,Mt Celia - Kangaroo Bore,122.498168,-29.45981,451339,6740965,51,Au Ag,Precious metal,GOLD,Mt Celia - Kangaroo Bore,N,,Y,PRME,O,Major Projects,Public,3339,LAKE CAREY,SH51-06,EDJUDINA,"MENZIES, SHIRE OF","GOLDFIELDS-ESPERANCE, Development Region",39,MT. MORGANS,Eastern Goldfields Superterrane,20260515
S0004457,Admiral,Admiral - Admiral South and West Open Pit,Mine,Openpit,Operating,J02010,Ulysses Gold,121.366721,-29.198572,341212,6768910,51,Au Ag,Precious metal,GOLD,Ulysses Gold,N,,Y,PRME,O,Major Projects,Public,3139,MELITA,SH51-05,MENZIES,"MENZIES, SHIRE OF","GOLDFIELDS-ESPERANCE, Development Region",40,NIAGARA,Eastern Goldfields Superterrane,20260515
S0004791,Darlot UG,Darlot Underground,Mine,Decline,Operating,J00082,Darlot,121.268908,-27.887515,329604,6914054,51,Au Ag,Precious metal,GOLD,Darlot,N,,Y,PRME,O,Major Projects,Public,3142,DARLOT,SG51-13,SIR SAMUEL,"LEONORA, SHIRE OF","GOLDFIELDS-ESPERANCE, Development Region",37,MT. MALCOLM,Eastern Goldfields Superterrane,20260515
S0004886,Janet Ivy,Janet Ivy,Mine,Openpit,Operating,J00019,Binduli,121.383338,-30.774454,345292,6594277,51,Au Ag,Precious metal,GOLD,Binduli,N,,Y,PRME,O,Major Projects,Public,3136,KALGOORLIE,SH51-09,KALGOORLIE,"KALGOORLIE-BOULDER, CITY OF","GOLDFIELDS-ESPERANCE, Development Region",26,EAST COOLGARDIE,Eastern Goldfields Superterrane,20260515
S0005040,Murrin North,Murrin North (PAN Production),Mine,Openpit,Operating,J00480,Murrin Murrin / Minara,121.89551,-28.747155,392158,6819527,51,Ni Co,Steel alloy metal,NICKEL,Murrin Murrin Ni Co,Y,Ni Co,Y,STAM,O,Major Projects,Public,3240,MINERIE,SH51-02,LAVERTON,"LAVERTON, SHIRE OF","GOLDFIELDS-ESPERANCE, Development Region",39,MT. MORGANS,Eastern Goldfields Superterrane,20260515
S0005573,Selkirk,Selkirk,Mine,Openpit,Care and Maintenance,J01011,Menzies,121.015109,-29.683577,307938,6714629,51,Au Ag,Precious metal,GOLD,Menzies,N,,Y,PRME,C,Major Projects,Public,3138,MENZIES,SH51-05,MENZIES,"MENZIES, SHIRE OF","GOLDFIELDS-ESPERANCE, Development Region",29,MENZIES,Eastern Goldfields Superterrane,20260515
S0005673,Pioneer,Pioneer - Higginsville,Mine,Unspecified,Operating,J00152,Higginsville,121.680308,-31.847276,375137,6475734,51,Au,Precious metal,GOLD,Higginsville,N,,Y,PRME,O,Major Projects,Public,3234,COWAN,SH51-14,WIDGIEMOOLTHA,"COOLGARDIE, SHIRE OF","GOLDFIELDS-ESPERANCE, Development Region",15,COOLGARDIE,Eastern Goldfields Superterrane,20260515
S0005907,Granny Venn,Granny Venn,Mine,Openpit,Care and Maintenance,J02197,East Menzies Gold,121.091807,-29.664048,315325,6716918,51,Au Ag,Precious metal,GOLD,East Menzies Gold,N,,Y,PRME,C,Major Projects,Public,3138,MENZIES,SH51-05,MENZIES,"MENZIES, SHIRE OF","GOLDFIELDS-ESPERANCE, Development Region",29,MENZIES,Eastern Goldfields Superterrane,20260515
S0006621,Sunrise Dam Underground,Sunrise Dam Underground,Mine,Decline,Operating,J01703,Sunrise Dam,122.419363,-29.079391,443489,6783079,51,Au Ag As,Precious metal,GOLD,Sunrise Dam,N,,Y,PRME,O,Major Projects,Public,3339,LAKE CAREY,SH51-06,EDJUDINA,"LAVERTON, SHIRE OF","GOLDFIELDS-ESPERANCE, Development Region",39,MT. MORGANS,Eastern Goldfields Superterrane,20260515
S0016701,Mt Kilkenny,Mt Kilkenny,Deposit,Unspecified,Undeveloped,J02232,NiWest / GME,121.807306,-29.043097,383876,6786652,51,Ni,Steel alloy metal,NICKEL,NiWest Ni,Y,Ni,Y,STAM,P,Major Projects,Public,3239,YERILLA,SH51-06,EDJUDINA,"LEONORA, SHIRE OF","GOLDFIELDS-ESPERANCE, Development Region",39,MT. MORGANS,Eastern Goldfields Superterrane,20260515
S0016715,Goongarrie Hill,Goongarrie Hill,Deposit,Unspecified,Undeveloped,J02352,Kalgoorlie Nickel Project,121.149012,-30.020487,321498,6677501,51,Ni Co,Steel alloy metal,NICKEL,Kalgoorlie Nickel Ni Co,Y,Ni Co,Y,STAM,P,Major Projects,Public,3137,BARDOC,SH51-09,KALGOORLIE,"MENZIES, SHIRE OF","GOLDFIELDS-ESPERANCE, Development Region",29,MENZIES,Eastern Goldfields Superterrane,20260515
S0017018,Southern TSF,Windarra Southern Tailings Storage Facility,Mine,Tailings storage facility,Proposed,J03296,Windarra Gold Tailings,122.248758,-28.499924,426478,6847186,51,Au,Precious metal,GOLD,Windarra Gold Tailings,N,,Y,PRME,P,Major Projects,Public,3341,MOUNT VARDEN,SH51-02,LAVERTON,"LAVERTON, SHIRE OF","GOLDFIELDS-ESPERANCE, Development Region",38,MT. MARGARET,Eastern Goldfields Superterrane,20260515
S0017147,Aphrodite,Aphrodite Underground,Mine,Decline,Proposed,J03406,Aphrodite,121.229587,-30.181097,329545,6659823,51,Au Ag,Precious metal,GOLD,Aphrodite,N,,Y,PRME,P,Major Projects,Public,3137,BARDOC,SH51-09,KALGOORLIE,"KALGOORLIE-BOULDER, CITY OF","GOLDFIELDS-ESPERANCE, Development Region",24,BROAD ARROW M.F.,Eastern Goldfields Superterrane,20260515
S0018854,Paradigm,Paradigm,Mine,Openpit,Operating,J04549,Carbine / Evolution,120.938312,-30.474917,302088,6626781,51,Au,Precious metal,GOLD,Carbine,N,,Y,PRME,O,Major Projects,Public,3037,DAVYHURST,SH51-09,KALGOORLIE,"COOLGARDIE, SHIRE OF","GOLDFIELDS-ESPERANCE, Development Region",16,KUNANALLING,Eastern Goldfields Superterrane,20260515
S0019514,Barton Main Westside,Barton Main - Westside,Mine,Decline,Operating,J01726,Jundee - Nimary,120.604113,-26.372535,260944,7080839,51,Au Ag,Precious metal,GOLD,Jundee - Nimary,N,,Y,PRME,O,Major Projects,Public,3045,MILLROSE,SG51-09,WILUNA,"WILUNA, SHIRE OF","MID-WEST, Development Region",53,WILUNA,Eastern Goldfields Superterrane,20260515
S0019642,Tarmoola N,Tarmoola North,Mine,Openpit,Operating,J00186,Tarmoola - King of the Hills,121.166076,-28.663843,320784,6827881,51,Au Ag,Precious metal,GOLD,Tarmoola - King of the Hills,N,,Y,PRME,O,Major Projects,Public,3140,LEONORA,SH51-01,LEONORA,"LEONORA, SHIRE OF","GOLDFIELDS-ESPERANCE, Development Region",37,MT. MALCOLM,Eastern Goldfields Superterrane,20260515
S0019710,Raleigh-Golden Hind U/G,Raleigh Underground,Mine,Decline,Operating,J01718,Kundana East,121.243609,-30.727556,331837,6599274,51,Au Ag,Precious metal,GOLD,Kundana East,N,,Y,PRME,O,Major Projects,Public,3136,KALGOORLIE,SH51-09,KALGOORLIE,"COOLGARDIE, SHIRE OF","GOLDFIELDS-ESPERANCE, Development Region",16,KUNANALLING,Eastern Goldfields Superterrane,20260515
S0021532,Golden Age UG,Golden Age Underground,Mine,Decline,Operating,J02624,Matilda,120.246706,-26.620317,225856,7052665,51,Au Ag,Precious metal,GOLD,Matilda,N,,Y,PRME,O,Major Projects,Public,2944,WILUNA,SG51-09,WILUNA,"WILUNA, SHIRE OF","MID-WEST, Development Region",53,WILUNA,Eastern Goldfields Superterrane,20260515
S0021542,Fimiston Superpit,Fimiston Superpit,Mine,Openpit,Operating,J00102,Golden Mile / KCGM,121.50353,-30.777958,356800,6594048,51,Au Ag,Precious metal,GOLD,Golden Mile,N,,Y,PRME,O,Major Projects,Public,3236,KANOWNA,SH51-10,KURNALPI,"KALGOORLIE-BOULDER, CITY OF","GOLDFIELDS-ESPERANCE, Development Region",26,EAST COOLGARDIE,Eastern Goldfields Superterrane,20260515
S0021890,Cassini,Cassini,Mine,Decline,Care and Maintenance,J02789,Widgiemooltha Nickel / Mincor,121.621111,-31.700925,369330,6491888,51,Ni Cu Co,Steel alloy metal,NICKEL,Widgiemooltha Ni Cu Co,Y,Ni Cu Co,Y,STAM,C,Major Projects,Public,3234,COWAN,SH51-14,WIDGIEMOOLTHA,"COOLGARDIE, SHIRE OF","GOLDFIELDS-ESPERANCE, Development Region",15,COOLGARDIE,Eastern Goldfields Superterrane,20260515
S0022527,Theia,Theia - Mandilla,Deposit,Unspecified,Undeveloped,J02817,Mandilla,121.520113,-31.378336,359275,6527522,51,Au Ag,Precious metal,GOLD,Mandilla,N,,Y,PRME,P,Major Projects,Public,3235,LAKE LEFROY,SH51-14,WIDGIEMOOLTHA,"COOLGARDIE, SHIRE OF","GOLDFIELDS-ESPERANCE, Development Region",15,COOLGARDIE,Eastern Goldfields Superterrane,20260515
S0022989,Mt Thirsty Ni,Mt Thirsty Ni,Deposit,Unspecified,Undeveloped,J03360,Mt Thirsty,121.647807,-32.101878,372414,6447472,51,Ni Co Mn,Steel alloy metal,NICKEL,Mt Thirsty Ni Co,Y,Ni Co Mn,Y,STAM,P,Major Projects,Public,3233,NORSEMAN,SI51-02,NORSEMAN,"DUNDAS, SHIRE OF","GOLDFIELDS-ESPERANCE, Development Region",63,DUNDAS M.F.,Eastern Goldfields Superterrane,20260515
S0023210,LNG Power,Darlot LNG Power Plant,Infrastructure,Power Plant,Operating,J00082,Darlot,121.270186,-27.897001,329744,6913005,51,Power,Energy,OTHER,Darlot Power Plant,N,,Y,ENPL,O,Major Projects,Public,3142,DARLOT,SG51-13,SIR SAMUEL,"LEONORA, SHIRE OF","GOLDFIELDS-ESPERANCE, Development Region",37,MT. MALCOLM,Eastern Goldfields Superterrane,20260515
S0024157,Orelia,Orelia - Cockburn,Mine,Openpit,Operating,J00250,Yandal - Bronzewing,120.939015,-27.419213,296257,6965444,51,Au Ag,Precious metal,GOLD,Yandal - Bronzewing,N,,Y,PRME,O,Major Projects,Public,3043,MOUNT KEITH,SG51-13,SIR SAMUEL,"LEONORA, SHIRE OF","GOLDFIELDS-ESPERANCE, Development Region",36,LAWLERS,Eastern Goldfields Superterrane,20260515
S0236189,Thunderbox UG,Thunderbox Underground,Mine,Decline,Operating,J02419,Thunderbox Gold,121.007295,-28.195991,304405,6879478,51,Au Ag,Precious metal,GOLD,Thunderbox,N,,Y,PRME,O,Major Projects,Public,3141,WEEBO,SH51-01,LEONORA,"LEONORA, SHIRE OF","GOLDFIELDS-ESPERANCE, Development Region",36,LAWLERS,Eastern Goldfields Superterrane,20260515
S0236281,MMN,Mt Marion North Pit,Mine,Openpit,Operating,J02285,Mt Marion Lithium,121.460085,-31.077395,353101,6560802,51,Li Ta,Speciality metal,TIN - TANTALUM - LITHIUM,Mt Marion Li Ta,Y,Li Ta,Y,SPME,O,Major Projects,Public,3135,YILMIA,SH51-13,BOORABBIN,"COOLGARDIE, SHIRE OF","GOLDFIELDS-ESPERANCE, Development Region",15,COOLGARDIE,Eastern Goldfields Superterrane,20260515
S0236468,Karonie Main Zone South,Karonie Main Zone South,Mine,Openpit,Operating,J00184,Aldiss - Karonie,122.560084,-31.039246,458019,6565966,51,Au Ag,Precious metal,GOLD,Aldiss - Karonie,N,,Y,PRME,O,Major Projects,Public,3435,ERAYINIA,SH51-14,WIDGIEMOOLTHA,"KALGOORLIE-BOULDER, CITY OF","GOLDFIELDS-ESPERANCE, Development Region",28,KURNALPI,Eastern Goldfields Superterrane,20260515
S0236531,Power Plant,Agnew - Waroonga Power Plant,Infrastructure,Power Plant,Operating,J00098,Agnew - Emu,120.513421,-27.99723,255463,6900612,51,Power,Energy,OTHER,Agnew - Waroonga Power Plant,N,,Y,ENPL,O,Major Projects,Public,3042,SIR SAMUEL,SG51-13,SIR SAMUEL,"LEONORA, SHIRE OF","GOLDFIELDS-ESPERANCE, Development Region",36,LAWLERS,Eastern Goldfields Superterrane,20260515
S0236793,Tarmoola West Stockpiles,Tarmoola West Stockpiles,Mine,Stockpile,Operating,J04132,Tarmoola Aggregate / MLG Oz,121.157925,-28.667398,319993,6827475,51,Agg,Construction material,CONSTRUCTION MATERIALS,Tarmoola Aggregate,N,,Y,COMA,O,Major Projects,Public,3140,LEONORA,SH51-01,LEONORA,"LEONORA, SHIRE OF","GOLDFIELDS-ESPERANCE, Development Region",37,MT. MALCOLM,Eastern Goldfields Superterrane,20260515
S0236968,Hub,Hub,Mine,Openpit,Operating,J00342,Redcliffe,121.563431,-28.462902,359353,6850677,51,Au Ag,Precious metal,GOLD,Redcliffe,N,,Y,PRME,O,Major Projects,Public,3241,NAMBI,SH51-02,LAVERTON,"LAVERTON, SHIRE OF","GOLDFIELDS-ESPERANCE, Development Region",37,MT. MALCOLM,Eastern Goldfields Superterrane,20260515
S0237055,Pennys Find UG,Pennys Find Underground,Mine,Decline,Proposed,J01376,Pennys Find,121.873865,-30.53085,391966,6621849,51,Au Ag,Precious metal,GOLD,Pennys Find,N,,Y,PRME,P,Major Projects,Public,3236,KANOWNA,SH51-10,KURNALPI,"KALGOORLIE-BOULDER, CITY OF","GOLDFIELDS-ESPERANCE, Development Region",27,KANOWNA,Eastern Goldfields Superterrane,20260515
S0237291,Myhree,Myhree / Black Cat,Mine,Openpit,Care and Maintenance,J01837,New Bulong - Boundary - Kal East Gold Project,121.775318,-30.729082,382751,6599782,51,Au Ag,Precious metal,GOLD,Kal East Gold,N,,Y,PRME,O,Major Projects,Public,3236,KANOWNA,SH51-10,KURNALPI,"KALGOORLIE-BOULDER, CITY OF","GOLDFIELDS-ESPERANCE, Development Region",25,BULONG,Eastern Goldfields Superterrane,20260515
S0238023,Kalgoorlie REE Plant,Kalgoorlie RE Processing Facility / Lynas,Infrastructure,Processing Plant,Operating,J00772,Mt Weld REE / Lynas,121.402116,-30.79577,347122,6591940,51,REE,Speciality metal,RARE EARTHS,Kalgoorlie RE Processing Facility,N,,Y,MIPL,O,Major Projects,Public,3136,KALGOORLIE,SH51-09,KALGOORLIE,"KALGOORLIE-BOULDER, CITY OF","GOLDFIELDS-ESPERANCE, Development Region",26,EAST COOLGARDIE,Eastern Goldfields Superterrane,20260515
S0233226,Bombora,Bombora - Lake Roe,Mine,Openpit,Proposed,J04745,Roe,122.56706,-30.715117,458546,6601889,51,Au Ag,Precious metal,GOLD,Roe,N,,Y,PRME,P,Major Projects,Public,3436,ROE,SH51-10,KURNALPI,"KALGOORLIE-BOULDER, CITY OF","GOLDFIELDS-ESPERANCE, Development Region",28,KURNALPI,Eastern Goldfields Superterrane,20260515
S0000689,Riverina UG,Riverina Underground,Mine,Decline,Operating,J00084,Davyhurst - Lady Ida - Mulline - Riverina - Siberia Gold,120.56481,-29.74401,264494,6707096,51,Au Ag,Precious metal,GOLD,Davyhurst,N,,Y,PRME,O,Major Projects,Public,3038,RIVERINA,SH51-05,MENZIES,"MENZIES, SHIRE OF","GOLDFIELDS-ESPERANCE, Development Region",30,ULARRING,Eastern Goldfields Superterrane,20260515
S0001161,Rayjax,Rayjax,Mine,Openpit,Care and Maintenance,J04814,Mungari / Evolution,121.125901,-30.76261,320630,6595205,51,Au Ag,Precious metal,GOLD,Mungari,N,,Y,PRME,O,Major Projects,Public,3136,KALGOORLIE,SH51-09,KALGOORLIE,"COOLGARDIE, SHIRE OF","GOLDFIELDS-ESPERANCE, Development Region",15,COOLGARDIE,Eastern Goldfields Superterrane,20260515
S0239942,LJN4,Lady Julie North 4 (LJN4),Mine,Openpit,Proposed,J05641,Lady Julie,122.307224,-28.687753,432321,6826411,51,Au Ag,Precious metal,GOLD,Lady Julie,N,,Y,PRME,P,Major Projects,Public,3340,LAVERTON,SH51-02,LAVERTON,"LAVERTON, SHIRE OF","GOLDFIELDS-ESPERANCE, Development Region",38,MT. MARGARET,Eastern Goldfields Superterrane,20260515
S0241339,Solar Farm,Jundee Solar Farm,Infrastructure,Power Plant,Operating,J01726,Jundee - Nimary,120.612274,-26.378076,261770,7080239,51,Power,Energy,OTHER,Jundee Solar Farm,N,,Y,ENPL,O,Major Projects,Public,3045,MILLROSE,SG51-09,WILUNA,"WILUNA, SHIRE OF","MID-WEST, Development Region",53,WILUNA,Eastern Goldfields Superterrane,20260515
S0223460,Bentley,Bentley,Mine,Decline,Care and Maintenance,J01287,Teutonic Bore - Jaguar,121.158923,-28.478179,319769,6848444,51,Zn Cu Ag Au Pb,Base metal,COPPER - LEAD - ZINC,Teutonic Bore – Jaguar Zn Cu Ag Au Pb,Y,Zn Cu Ag Au Pb,Y,BAME,C,Major Projects,Public,3141,WEEBO,SH51-01,LEONORA,"LEONORA, SHIRE OF","GOLDFIELDS-ESPERANCE, Development Region",37,MT. MALCOLM,Eastern Goldfields Superterrane,20260515
S0019517,Bald Hill Central (South),Bald Hill Central (South),Mine,Openpit,Care and Maintenance,J00444,Bald Hill,122.177346,-31.522761,421894,6512166,51,Li Ta,Speciality metal,TIN - TANTALUM - LITHIUM,Bald Hill Li Ta,Y,Li Ta,Y,SPME,C,Major Projects,Public,3334,YARDINA,SH51-14,WIDGIEMOOLTHA,"COOLGARDIE, SHIRE OF","GOLDFIELDS-ESPERANCE, Development Region",15,COOLGARDIE,Eastern Goldfields Superterrane,20260515
S0242263,Solar Farm,Porphyry Solar Farm,Infrastructure,Power Plant,Proposed,J00094,Porphyry - Northern Operations,122.285334,-29.784079,430922,6704925,51,Power,Energy,OTHER,Porphyry Solar Farm,N,,Y,ENPL,O,Major Projects,Public,3338,EDJUDINA,SH51-06,EDJUDINA,"MENZIES, SHIRE OF","GOLDFIELDS-ESPERANCE, Development Region",31,YERILLA,Eastern Goldfields Superterrane,20260515
S0234164,Kathleen Corner,Kathleen Corner Pit,Mine,Openpit,Operating,J04902,Kathleen Valley Lithium,120.558141,-27.471056,258705,6959016,51,Li Ta,Speciality metal,TIN - TANTALUM - LITHIUM,Kathleen Valley Li Ta,Y,Li Ta,Y,SPME,O,Major Projects,Public,3043,MOUNT KEITH,SG51-13,SIR SAMUEL,"LEONORA, SHIRE OF","GOLDFIELDS-ESPERANCE, Development Region",36,LAWLERS,Eastern Goldfields Superterrane,20260515
S0022741,Crawford,Crawford - Gambier Lass,Mine,Openpit,Proposed,J02802,Leonora - Crawford and Gambier Lass,121.58491,-28.878056,362001,6804702,51,Au Ag,Precious metal,GOLD,Crawford,N,,Y,PRME,P,Major Projects,Public,3240,MINERIE,SH51-02,LAVERTON,"LEONORA, SHIRE OF","GOLDFIELDS-ESPERANCE, Development Region",37,MT. MALCOLM,Eastern Goldfields Superterrane,20260515
S0243263,Power Plant,Mt Weld REE Thermal Power Plant,Infrastructure,Power Plant,Operating,J00772,Mt Weld REE / Lynas,122.525955,-28.858262,453764,6807625,51,REE,Speciality metal,RARE EARTHS,Mt Weld REE Thermal Power Plant,N,,Y,ENPL,O,Major Projects,Public,3440,BURTVILLE,SH51-02,LAVERTON,"LAVERTON, SHIRE OF","GOLDFIELDS-ESPERANCE, Development Region",38,MT. MARGARET,Eastern Goldfields Superterrane,20260515
S0239831,Baker,Baker,Mine,Decline,Proposed,J04621,Kambalda Nickel,121.79884,-31.343558,385739,6531698,51,Ni,Steel alloy metal,NICKEL,Kambalda Ni,Y,Ni,Y,STAM,P,Major Projects,Public,3235,LAKE LEFROY,SH51-14,WIDGIEMOOLTHA,"COOLGARDIE, SHIRE OF","GOLDFIELDS-ESPERANCE, Development Region",15,COOLGARDIE,Eastern Goldfields Superterrane,20260515
S0000933,Bellevue UG,Bellevue Underground,Mine,Decline,Operating,J04770,Bellevue,120.55763,-27.636059,259016,6940729,51,Au Ag,Precious metal,GOLD,Bellevue,N,,Y,PRME,O,Major Projects,Public,3042,SIR SAMUEL,SG51-13,SIR SAMUEL,"LEONORA, SHIRE OF","GOLDFIELDS-ESPERANCE, Development Region",36,LAWLERS,Eastern Goldfields Superterrane,20260515
S0243410,Wind Turbine,Bellevue Wind Turbine,Infrastructure,Power Plant,Operating,J04770,Bellevue,120.552344,-27.630257,258481,6941361,51,Power,Energy,OTHER,Bellevue Wind Turbine,N,,Y,ENPL,O,Major Projects,Public,3042,SIR SAMUEL,SG51-13,SIR SAMUEL,"LEONORA, SHIRE OF","GOLDFIELDS-ESPERANCE, Development Region",36,LAWLERS,Eastern Goldfields Superterrane,20260515
S0243721,Powerhouse and BESS,Jundee Powerhouse and BESS,Infrastructure,Power Plant,Operating,J01726,Jundee - Nimary,120.619836,-26.360092,262487,7082246,51,Power,Energy,OTHER,Jundee BESS,N,,Y,ENPL,O,Major Projects,Public,3045,MILLROSE,SG51-09,WILUNA,"WILUNA, SHIRE OF","MID-WEST, Development Region",53,WILUNA,Eastern Goldfields Superterrane,20260515
S0245194,Solar Farm,Binduli North Solar Farm,Infrastructure,Power Plant,Operating,J00019,Binduli,121.368267,-30.788132,343871,6592740,51,Power,Energy,OTHER,Binduli North Solar Farm,N,,Y,ENPL,O,Major Projects,Public,3136,KALGOORLIE,SH51-09,KALGOORLIE,"KALGOORLIE-BOULDER, CITY OF","GOLDFIELDS-ESPERANCE, Development Region",26,EAST COOLGARDIE,Eastern Goldfields Superterrane,20260515
S0245278,Fish UG,Jasper Hills - Fish Underground,Mine,Decline,Operating,J05577,Jasper Hills ,123.116749,-29.099665,511360,6780966,51,Au Ag,Precious metal,GOLD,Jasper Hills,N,,Y,PRME,O,Major Projects,Public,3539,LIGHTFOOT,SH51-07,MINIGWAL,"MENZIES, SHIRE OF","GOLDFIELDS-ESPERANCE, Development Region",39,MT. MORGANS,Eastern Goldfields Superterrane,20260515
S0003994,Fingals,Fingals,Mine,Openpit,Operating,J02818,North Monger - Kal East Gold Project,121.896962,-30.96945,394660,6573261,51,Au Ag,Precious metal,GOLD,North Monger,N,,Y,PRME,U,Major Projects,Public,3236,KANOWNA,SH51-10,KURNALPI,"KALGOORLIE-BOULDER, CITY OF","GOLDFIELDS-ESPERANCE, Development Region",26,EAST COOLGARDIE,Eastern Goldfields Superterrane,20260515
S0246239,Parkeston Power Station,Parkeston Power Station - Kalgoorlie,Infrastructure,Power Plant,Operating,J07035,Parkeston Power Station - Kalgoorlie,121.506346,-30.737768,357010,6598506,51,Power,Energy,OTHER,Parkeston Power Station,N,,Y,ENPL,O,Major Projects,Public,3236,KANOWNA,SH51-10,KURNALPI,"KALGOORLIE-BOULDER, CITY OF","GOLDFIELDS-ESPERANCE, Development Region",26,EAST COOLGARDIE,Eastern Goldfields Superterrane,20260515
S0246245,Mt Ida Power Station,Mt Ida Power Station,Infrastructure,Power Plant,Operating,J00430,Mt Ida Gold,120.462235,-29.10149,253020,6778108,51,Au,Precious metal,GOLD,Mt Ida Power Station,N,,Y,ENPL,O,Major Projects,Public,2939,MOUNT MASON,SH51-05,MENZIES,"MENZIES, SHIRE OF","GOLDFIELDS-ESPERANCE, Development Region",29,MENZIES,Eastern Goldfields Superterrane,20260515
S0005068,Iguana ,Iguana,Mine,Openpit,Operating,J06689,Lady Ida / Lamerton Geoda,120.662244,-30.494737,275625,6624068,51,Au Ag,Precious metal,GOLD,Lady Ida,N,,Y,PRME,U,Major Projects,Public,3037,DAVYHURST,SH51-09,KALGOORLIE,"COOLGARDIE, SHIRE OF","GOLDFIELDS-ESPERANCE, Development Region",16,KUNANALLING,Eastern Goldfields Superterrane,20260515
S0001538,Abra UG,Abra Underground,Mine,Decline,Operating,J00545,Abra - Mulgul,118.585522,-24.638199,660473,7274187,50,Pb Ag,Base metal,COPPER - LEAD - ZINC,Abra–Mulgul Pb Ag,Y,Pb Ag,Y,BAME,O,Major Projects,Public,2648,CALYIE,SG50-04,COLLIER,"MEEKATHARRA, SHIRE OF","MID-WEST, Development Region",52,PEAK HILL M.F.,Edmund Basin,20260515
S0224538,Catho Well South,Catho Well South Pits,Mine,Openpit,Proposed,J03229,West Pilbara - Mt Stuart /API,116.285766,-22.433621,426501,7519001,50,Fe,Iron,IRON ORE,West Pilbara - Mt Stuart,N,,Y,IRON,P,Major Projects,Public,2153,MOUNT STUART,SF50-10,WYLOO,"ASHBURTON, SHIRE OF","PILBARA, Development Region",8,ASHBURTON M.F.,Ashburton Basin,20260515
S0230520,Robe Mesa,Robe Mesa,Mine,Openpit,Proposed,J03193,Yarraloola / CZR,116.011578,-21.761843,397801,7593206,50,Fe,Iron,IRON ORE,Yarraloola,N,,Y,IRON,P,Major Projects,Public,2154,PANNAWONICA,SF50-06,YARRALOOLA,"ASHBURTON, SHIRE OF","PILBARA, Development Region",8,ASHBURTON M.F.,Ashburton Basin,20260515
S0022237,Redgate CID,Redgate CID Pits,Mine,Openpit,Proposed,J03935,Pannawonica CID,116.14756,-21.781662,411874,7591096,50,Fe,Iron,IRON ORE,Pannawonica,N,,Y,IRON,P,Major Projects,Public,2154,PANNAWONICA,SF50-06,YARRALOOLA,"ASHBURTON, SHIRE OF","PILBARA, Development Region",8,ASHBURTON M.F.,Ashburton Basin,20260515
S0022812,Paulsens East Main Pit,Paulsens East Main Pit,Mine,Openpit,Care and Maintenance,J03312,Paulsens East Iron,116.33697,-22.562834,431833,7504721,50,Fe,Iron,IRON ORE,Paulsens East,N,,Y,IRON,C,Major Projects,Public,2152,WYLOO,SF50-10,WYLOO,"ASHBURTON, SHIRE OF","PILBARA, Development Region",47,WEST PILBARA M.F.,Ashburton Basin,20260515
S0020506,Icon,Icon,Mine,Openpit,Proposed,J02011,Glenburgh,116.100229,-25.391457,409491,7191400,50,Au Ag,Precious metal,GOLD,Glenburgh,N,,Y,PRME,P,Major Projects,Public,2147,GLENBURGH,SG50-06,GLENBURGH,"UPPER GASCOYNE, SHIRE OF","GASCOYNE, Development Region",9,GASCOYNE M.F.,Glenburgh Terrane,20260515
S0230898,Gruyere,Gruyere,Mine,Openpit,Operating,J04673,Yamarna - Gruyere JV,123.845224,-27.984416,583118,6904236,51,Au Ag,Precious metal,GOLD,Gruyere,N,,Y,PRME,O,Major Projects,Public,3642,YAMARNA,SG51-15,THROSSELL,"LAVERTON, SHIRE OF","GOLDFIELDS-ESPERANCE, Development Region",38,MT. MARGARET,Yamarna Terrane,20260515
S0236664,Gilmour - Wanderrie Camp,Gilmour - Wanderrie Camp,Deposit,Unspecified,Undeveloped,J01858,Yamarna / Gold Road,123.764018,-28.337695,574886,6865152,51,Au Ag,Precious metal,GOLD,Yamarna,N,,Y,PRME,P,Major Projects,Public,3641,DOROTHY HILLS,SH51-03,RASON,"LAVERTON, SHIRE OF","GOLDFIELDS-ESPERANCE, Development Region",38,MT. MARGARET,Yamarna Terrane,20260515
S0239299,Solar Farm,Gruyere Solar Farm,Infrastructure,Power Plant,Operating,J04673,Yamarna - Gruyere JV,123.852586,-28.005041,583826,6901946,51,Power Au Ag,Energy,OTHER,Gruyere Solar Farm,N,,Y,ENPL,O,Major Projects,Public,3641,DOROTHY HILLS,SH51-03,RASON,"LAVERTON, SHIRE OF","GOLDFIELDS-ESPERANCE, Development Region",38,MT. MARGARET,Yamarna Terrane,20260515
S0230742,Emperor,Emperor - McIntosh,Deposit,Unspecified,Undeveloped,J04275,McIntosh Graphite,127.962612,-17.611129,389936,8052535,52,Gr,Industrial mineral,GRAPHITE,McIntosh Gr,Y,Gr,Y,INMI,P,Major Projects,Public,4462,MCINTOSH,SE52-06,DIXON RANGE,"HALLS CREEK, SHIRE OF","KIMBERLEY, Development Region",80,KIMBERLEY M.F.,"Lamboo Province, Central Zone",20260515
S0001805,Panton,Panton,Mine,Decline,Proposed,J00819,Panton,127.831605,-17.751516,376131,8036920,52,Pt Pd Au Ni Cu Co,Precious metal,CHROMITE - PLATINOIDS,Panton PGE Au Ni Cu Co,Y,Pt Pd Au Ni Cu Co,Y,PRME,P,Major Projects,Public,4462,MCINTOSH,SE52-06,DIXON RANGE,"HALLS CREEK, SHIRE OF","KIMBERLEY, Development Region",80,KIMBERLEY M.F.,"Lamboo Province, Central Zone",20260515
S0019821,Decline Portal,Savannah Decline Portal,Mine,Decline,Care and Maintenance,J00656,Savannah Nickel,128.025651,-17.353475,396479,8081078,52,Ni Cu Co,Steel alloy metal,NICKEL,Savannah Ni Cu Co,Y,Ni Cu Co,Y,STAM,C,Major Projects,Public,4563,TURKEY CREEK,SE52-06,DIXON RANGE,"HALLS CREEK, SHIRE OF","KIMBERLEY, Development Region",80,KIMBERLEY M.F.,"Lamboo Province, Central Zone",20260515
S0001902,Windsor,Windsor Fluorite,Deposit,Unspecified,Undeveloped,J00905,Speewah Fluorite,127.978837,-16.404296,390961,8186068,52,Fl,Industrial mineral,FLUORITE,Speewah Fl,Y,Fl,Y,INMI,P,Major Projects,Public,4465,ELGEE,SE52-02,LISSADELL,"WYNDHAM-EAST KIMBERLEY, SHIRE OF","KIMBERLEY, Development Region",80,KIMBERLEY M.F.,Speewah Basin,20260515
S0001602,Cockatoo Island 3,Cockatoo Island Stage 3 (and seawall),Mine,Openpit,Operating,J01147,Cockatoo Island,123.608019,-16.098391,565022,8220086,51,Fe,Iron,IRON ORE,Cockatoo Island,N,,Y,IRON,O,Major Projects,Public,3665,YAMPI,SE51-03,YAMPI,"DERBY/WEST KIMBERLEY, SHIRE OF","KIMBERLEY, Development Region",4,WEST KIMBERLEY M.F.,Kimberley Basin,20260515
S0005227,Kalumburu B,Wuudagu B,Deposit,Unspecified,Undeveloped,J01916,Wuudagu Bauxite / VBX,126.472247,-14.279496,227281,8419878,52,Bx,Alumina,BAUXITE - ALUMINA,Wuudagu,N,,Y,ALUM,P,Major Projects,Public,4169,VANSITTART,SD52-09,DRYSDALE,"WYNDHAM-EAST KIMBERLEY, SHIRE OF","KIMBERLEY, Development Region",80,KIMBERLEY M.F.,Kimberley Basin,20260515
S0019349,Wyndham,Wyndham Port,Infrastructure,Port,Operating,J02575,Wyndham Port Authority,128.101114,-15.451146,403565,8291573,52,UN,Other (MINEDEX non-minerals),UNASSIGNED,Wyndham,N,,Y,PORT,O,Major Projects,Public,4567,WYNDHAM,SD52-14,CAMBRIDGE GULF,"WYNDHAM-EAST KIMBERLEY, SHIRE OF","KIMBERLEY, Development Region",80,KIMBERLEY M.F.,Kimberley Basin,20260515
S0020981,Koolan Main,Koolan Main,Mine,Openpit,Operating,J00728,Koolan Island,123.738107,-16.133014,578920,8216210,51,Fe,Iron,IRON ORE,Koolan Island,N,,Y,IRON,O,Major Projects,Public,3665,YAMPI,SE51-03,YAMPI,"DERBY/WEST KIMBERLEY, SHIRE OF","KIMBERLEY, Development Region",4,WEST KIMBERLEY M.F.,Kimberley Basin,20260515
S0003046,Nifty Portal,Nifty Sulphide Portal,Mine,Decline,Care and Maintenance,J00626,Nifty,121.567408,-21.656745,351762,7604482,51,Cu,Base metal,COPPER - LEAD - ZINC,Nifty Cu,Y,Cu,Y,BAME,P,Major Projects,Public,3254,LAMIL,SF51-06,PATERSON RANGE,"EAST PILBARA, SHIRE OF","PILBARA, Development Region",45,MARBLE BAR,Yeneena Basin,20260515
S0003263,O'Callaghans,O'Callaghans,Deposit,Unspecified,Undeveloped,J01613,O'Callaghans,122.258509,-21.792087,423350,7590002,51,W Cu Zn Pb Mo Au,Steel alloy metal,TUNGSTEN - MOLYBDENUM,O'Callaghans W Cu Zn Pb Mo,Y,W Cu Zn Pb Mo Au,Y,STAM,P,Major Projects,Public,3354,PATERSON,SF51-06,PATERSON RANGE,"EAST PILBARA, SHIRE OF","PILBARA, Development Region",45,MARBLE BAR,Yeneena Basin,20260515
S0019793,Telfer Primary Power,Telfer Primary Power Plant and Pipeline,Infrastructure,Power Plant,Operating,J00338,Telfer / Greatland Resources,122.182513,-21.741817,415464,7595526,51,Power,Energy,OTHER,Telfer Primary Power Plant,N,,Y,ENPL,O,Major Projects,Public,3354,PATERSON,SF51-06,PATERSON RANGE,"EAST PILBARA, SHIRE OF","PILBARA, Development Region",45,MARBLE BAR,Yeneena Basin,20260515
S0000732,Main Dome,Telfer Main Dome,Mine,Openpit,Operating,J00338,Telfer / Greatland Resources,122.207128,-21.719551,417997,7598004,51,Au Cu Ag,Precious metal,GOLD,Telfer Au Cu Ag,Y,Au Cu Ag,Y,PRME,O,Major Projects,Public,3354,PATERSON,SF51-06,PATERSON RANGE,"EAST PILBARA, SHIRE OF","PILBARA, Development Region",45,MARBLE BAR,Yeneena Basin,20260515
S0237397,Minyari,Minyari,Deposit,Unspecified,Undeveloped,J04792,Minyari Dome,122.257694,-21.381333,423049,7635467,51,Au Ag Cu Co,Precious metal,GOLD,Minyari Dome Au Ag Cu Co,Y,Au Ag Cu Co,Y,PRME,P,Major Projects,Public,3355,COOLYU,SF51-06,PATERSON RANGE,"EAST PILBARA, SHIRE OF","PILBARA, Development Region",45,MARBLE BAR,Yeneena Basin,20260515
S0020250,Gorgon LNG,Gorgon LNG Processing Facility,Infrastructure,Processing Plant,Operating,J02733,Gorgon LNG Processing,115.458308,-20.783456,339529,7701051,50,LNG,Energy,PETROLEUM,Gorgon LNG,N,,Y,PPPL,O,Major Projects,Public,1956,BARROW ISLAND,SF50-01,BARROW ISLAND,"ASHBURTON, SHIRE OF","PILBARA, Development Region",8,ASHBURTON M.F.,Barrow Sub-basin,20260515
S0005219,Sam North,Sam North - Ridges,Mine,Openpit,Operating,J01915,Ridges Iron Ore,128.260095,-16.618586,421082,8162492,52,Fe Mag,Iron,IRON ORE,Ridges Mag,Y,Fe Mag,Y,IRON,O,Major Projects,Public,4564,BOW,SE52-02,LISSADELL,"WYNDHAM-EAST KIMBERLEY, SHIRE OF","KIMBERLEY, Development Region",80,KIMBERLEY M.F.,Carr Boyd Basin,20260515
S0019367,Ord River Power,Ord River Hydro Plant,Infrastructure,Power Plant,Operating,J02581,Ord River Hydro,128.743826,-16.10519,472605,8219412,52,Power,Energy,OTHER,Ord River Hydro Plant,N,,Y,ENPL,O,Major Projects,Public,4665,ARGYLE DOWNS,SE52-02,LISSADELL,"WYNDHAM-EAST KIMBERLEY, SHIRE OF","KIMBERLEY, Development Region",80,KIMBERLEY M.F.,Carr Boyd Basin,20260515
S0005047,Magellan,Magellan - Wiluna,Mine,Openpit,Care and Maintenance,J01894,Paroo Station,119.943308,-26.519216,793331,7063448,50,Pb,Base metal,COPPER - LEAD - ZINC,Paroo Station Pb,Y,Pb,Y,BAME,C,Major Projects,Public,2844,MEREWETHER,SG50-12,GLENGARRY,"WILUNA, SHIRE OF","MID-WEST, Development Region",53,WILUNA,Earaheedy Basin,20260515
S0224488,Lake Mackay,Lake Mackay Potash,Mine,Pond,Proposed,J03848,Mackay Potash / Agrimin,128.433013,-22.550226,441702,7506158,52,K K2SO4,Industrial mineral,POTASH,Mackay Potash K,Y,K K2SO4,Y,INMI,P,Major Projects,Public,4552,WEBB,SF52-10,WEBB,"EAST PILBARA, SHIRE OF","PILBARA, Development Region",80,KIMBERLEY M.F.,Amadeus Basin (Phase 1),20260515
S0230961,Lynton North/GMA,Lynton North - Port Gregory/GMA,Mine,Openpit,Operating,J00788,Port Gregory Garnet/GMA,114.25626,-28.146616,230537,6883511,50,Grt Ilm Zrn,Industrial mineral,HEAVY MINERAL SANDS,Port Gregory Grt Ilm Zrn,Y,Grt Ilm Zrn,Y,INMI,O,Major Projects,Public,1741,HUTT,SH50-01,GERALDTON,"NORTHAMPTON, SHIRE OF","MID-WEST, Development Region",70,SOUTH WEST M.F.,Gascoyne Platform,20260515
S0001864,Useless Loop Salt Conc Ponds,Useless Loop Salt Concentrator Ponds,Mine,Pond,Operating,J00871,Shark Bay Salt,113.402465,-26.157671,740155,7104634,49,Salt Bittern,Industrial mineral,SALT,Shark Bay Salt,Y,Salt Bittern,Y,INMI,O,Major Projects,Public,1545,EDEL,SG49-12,EDEL,"SHARK BAY, SHIRE OF","GASCOYNE, Development Region",9,GASCOYNE M.F.,Gascoyne Platform,20260515
S0003598,Lake MacLeod,Lake MacLeod Gypsum,Mine,Openpit,Operating,J01474,Lake MacLeod Gypsum,113.562718,-24.234362,760241,7317436,49,Gp,Industrial mineral,GYPSUM,Lake MacLeod Gp,Y,Gp,Y,INMI,O,Major Projects,Public,1649,MACLEOD,SG49-04,QUOBBA,"CARNARVON, SHIRE OF","GASCOYNE, Development Region",9,GASCOYNE M.F.,Gascoyne Platform,20260515
S0004238,Menari,Menari,Mine,Openpit,Operating,J01644,Lucky Bay Garnet,114.183066,-28.029367,223044,6896343,50,Grt HM Leu Ilm Zrn Rt,Industrial mineral,HEAVY MINERAL SANDS,Lucky Bay Grt HM,Y,Grt HM Leu Ilm Zrn Rt,Y,INMI,O,Major Projects,Public,1741,HUTT,SH50-01,GERALDTON,"NORTHAMPTON, SHIRE OF","MID-WEST, Development Region",70,SOUTH WEST M.F.,Gascoyne Platform,20260515
S0019457,Cape Cuvier,Texada Jetty - Cape Cuvier,Infrastructure,Port,Operating,J01474,Lake MacLeod Gypsum,113.394117,-24.224587,743131,7318823,49,Gp,Industrial mineral,GYPSUM,Cape Cuvier,N,,Y,PORT,O,Major Projects,Public,1549,QUOBBA,SG49-04,QUOBBA,"CARNARVON, SHIRE OF","GASCOYNE, Development Region",9,GASCOYNE M.F.,Gascoyne Platform,20260515
S0023351,Lake MacLeod Crystalliser Pond,Lake MacLeod Main Crystalliser Pond,Mine,Pond,Operating,J00870,Lake MacLeod Salt,113.551608,-24.446488,758680,7293955,49,Salt,Industrial mineral,SALT,Lake MacLeod Salt,Y,Salt,Y,INMI,O,Major Projects,Public,1649,MACLEOD,SG49-04,QUOBBA,"CARNARVON, SHIRE OF","GASCOYNE, Development Region",9,GASCOYNE M.F.,Gascoyne Platform,20260515
S0240062,Amy South,Amy South,Mine,Openpit,Care and Maintenance,J02467,Coburn Zircon,114.11905,-26.695937,213328,7044001,50,HM Zrn Ilm Leu Rt,Speciality metal,HEAVY MINERAL SANDS,Coburn HM Zr,Y,HM Zrn Ilm Leu Rt,Y,SPME,C,Major Projects,Public,1744,COBURN,SG50-09,YARINGA,"SHARK BAY, SHIRE OF","GASCOYNE, Development Region",9,GASCOYNE M.F.,Gascoyne Platform,20260515
S0240113,HyEnergy,HyEnergy,Other,Unspecified,Proposed,J06004,HyEnergy - Green Hydrogen,113.768684,-25.091906,779248,7222012,49,Power NH4,Energy,OTHER,HyEnergy,N,,Y,ENPL,P,Major Projects,Public,1647,GREENOUGH,SG49-08,SHARK BAY,"CARNARVON, SHIRE OF","GASCOYNE, Development Region",9,GASCOYNE M.F.,Gascoyne Platform,20260515
S0245265,PtX Plant,Power to X plant - Murchison Renewable Ammonia and Desalination Plant,Infrastructure,Processing Plant,Proposed,J06953,Murchison Hydrogen Renewables,114.070523,-27.396632,210304,6966222,50,NH4,Other (MINEDEX non-minerals),PETROLEUM,Murchison Hydrogen,N,,Y,PPPL,P,Major Projects,Public,1743,COOLCURDA,SG50-13,AJANA,"NORTHAMPTON, SHIRE OF","MID-WEST, Development Region",70,SOUTH WEST M.F.,Gascoyne Platform,20260515
S0223607,Speewah Central,Speewah Central,Mine,Openpit,Proposed,J03668,Speewah Vanadium-Titanium,127.949547,-16.36141,387809,8190797,52,V Ti Mag Al2O3 Mg,Steel alloy metal,VANADIUM - TITANIUM,Speewah  V Ti Mag,Y,V Ti Mag Al2O3 Mg,Y,STAM,P,Major Projects,Public,4465,ELGEE,SE52-02,LISSADELL,"WYNDHAM-EAST KIMBERLEY, SHIRE OF","KIMBERLEY, Development Region",80,KIMBERLEY M.F.,Hart-Carson Large Igneous Province,20260515
S0023302,Cyclone,Cyclone - Wanna Lakes,Mine,Openpit,Proposed,J03442,Cyclone Zircon,128.732183,-28.81705,473869,6812254,52,HM Zrn Leu Ilm Rt,Speciality metal,HEAVY MINERAL SANDS,Cyclone Zircon HM,Y,HM Zrn Leu Ilm Rt,Y,SPME,P,Major Projects,Public,4640,MELROSE,SH52-02,WANNA,"LAVERTON, SHIRE OF","GOLDFIELDS-ESPERANCE, Development Region",69,WARBURTON M.F.,Westwood Shelf,20260515
S0230566,Topvar,Topvar,Mine,Openpit,Operating,J00725,Woodie Woodie (Mining Corridor) / ConsMin,121.232375,-21.601475,317018,7610244,51,Mn,Steel alloy metal,MANGANESE ORE,Woodie Woodie Mn,Y,Mn,Y,STAM,O,Major Projects,Public,3154,PEARANA,SF51-05,NULLAGINE,"EAST PILBARA, SHIRE OF","PILBARA, Development Region",45,MARBLE BAR,Wells Sub-basin,20260515
S0022801,Lake Disappointment Pilot Ponds,Lake Disappointment Pilot Ponds Potash,Mine,Pond,Under Development,J03309,Kumpupintil Lake,122.814737,-23.281754,481054,7425277,51,K K2SO4 Salt,Industrial mineral,POTASH,Kumpupintil Lake K,Y,K K2SO4 Salt,Y,INMI,U,Major Projects,Public,3451,GUNANYA,SF51-14,GUNANYA,"EAST PILBARA, SHIRE OF","PILBARA, Development Region",45,MARBLE BAR,Salt-ruptured Zone (Phase 1),20260515
S0006746,Starlight UG,Starlight Underground,Mine,Decline,Operating,J00109,Fortnum,118.358508,-25.321886,636735,7198715,50,Au Ag,Precious metal,GOLD,Fortnum,N,,Y,PRME,O,Major Projects,Public,2547,MILGUN,SG50-07,ROBINSON RANGE,"MEEKATHARRA, SHIRE OF","MID-WEST, Development Region",52,PEAK HILL M.F.,Bryah Basin,20260515
S0240915,Hybrid Power,"Fortnum Solar Array, BESS and Power Station",Infrastructure,Power Plant,Operating,J00109,Fortnum,118.357911,-25.326353,636670,7198221,50,Power,Energy,OTHER,"Fortnum Solar Array, BESS and Power Station",N,,Y,ENPL,O,Major Projects,Public,2547,MILGUN,SG50-07,ROBINSON RANGE,"MEEKATHARRA, SHIRE OF","MID-WEST, Development Region",52,PEAK HILL M.F.,Bryah Basin,20260515
S0022843,Kens Bore,Kens Bore,Mine,Openpit,Operating,J00753,West Pilbara - Red Hill / API,116.195804,-22.055675,417021,7560792,50,Fe,Iron,IRON ORE,West Pilbara - Red Hill,N,,Y,IRON,O,Major Projects,Public,2153,MOUNT STUART,SF50-10,WYLOO,"ASHBURTON, SHIRE OF","PILBARA, Development Region",8,ASHBURTON M.F.,Turee Creek Basin,20260515
S0236158,Grasmere Wind,Grasmere Wind Farm,Infrastructure,Power Plant,Operating,J03221,Albany and Grasmere Wind Farms,117.759897,-35.044479,569305,6121760,50,Power,Energy,OTHER,Grasmere Wind Farm,N,,Y,ENPL,O,Major Projects,Public,2427,ALBANY,SI50-15,ALBANY,"ALBANY, CITY OF","GREAT SOUTHERN, Development Region",70,SOUTH WEST M.F.,Esperance Shelf,20260515
S0001462,Southdown,Southdown,Mine,Openpit,Proposed,J00676,Southdown Magnetite,118.521038,-34.542796,639571,6176607,50,Fe Mag,Iron,IRON ORE,Southdown Mag,Y,Fe Mag,Y,IRON,P,Major Projects,Public,2628,CHEYNE,SI50-12,BREMER BAY,"ALBANY, CITY OF","GREAT SOUTHERN, Development Region",70,SOUTH WEST M.F.,Esperance Shelf,20260515
S0019343,Albany,Albany Port,Infrastructure,Port,Operating,J02572,Albany Port Authority,117.903614,-35.039416,582417,6122212,50,UN,Other (MINEDEX non-minerals),UNASSIGNED,Albany,N,,Y,PORT,O,Major Projects,Public,2427,ALBANY,SI50-15,ALBANY,"ALBANY, CITY OF","GREAT SOUTHERN, Development Region",70,SOUTH WEST M.F.,Esperance Shelf,20260515
S0022422,Albany Wind Farm,Albany Wind Farm,Infrastructure,Power Plant,Operating,J03221,Albany and Grasmere Wind Farms,117.785114,-35.059046,571592,6120126,50,Power,Energy,OTHER,Albany Wind Farm,N,,Y,ENPL,O,Major Projects,Public,2427,ALBANY,SI50-15,ALBANY,"ALBANY, CITY OF","GREAT SOUTHERN, Development Region",70,SOUTH WEST M.F.,Esperance Shelf,20260515
S0004316,Mindijup/TT Sand,Mindijup / TT Sand,Mine,Openpit,Operating,J01658,Mindijup / TT Sand,118.076797,-34.768851,598537,6152062,50,Sisd,Industrial mineral,SILICA - SILICA SAND,Mindijup Sisd,N,,Y,INMI,O,Major Projects,Public,2528,MANYPEAKS,SI50-11,MOUNT BARKER,"ALBANY, CITY OF","GREAT SOUTHERN, Development Region",70,SOUTH WEST M.F.,Esperance Shelf,20260515
S0019195,Three Springs Pit D,Three Springs Pit D,Mine,Openpit,Operating,J00913,Three Springs Talc,115.861195,-29.506352,389622,6735372,50,Tlc,Industrial mineral,TALC,Three Springs Tlc,Y,Tlc,Y,INMI,O,Major Projects,Public,2038,CARNAMAH,SH50-06,PERENJORI,"THREE SPRINGS, SHIRE OF","MID-WEST, Development Region",70,SOUTH WEST M.F.,Moora Basin,20260515
S0023090,Main Pit,Moora Silica - Coomberdale,Mine,Openpit,Operating,J00918,Kemerton Silicon / Simcoa,116.03651,-30.518787,407559,6623332,50,Sisd SiO2 Chert,Industrial mineral,SILICA - SILICA SAND,Kemerton Sisd,N,,Y,INMI,O,Major Projects,Public,2136,MOORA,SH50-10,MOORA,"MOORA, SHIRE OF","WHEATBELT, Development Region",70,SOUTH WEST M.F.,Moora Basin,20260515
S0005867,Oakajee Port,Oakajee Deepwater Port,Infrastructure,Port,Proposed,J02187,Oakajee Deepwater Port and Rail,114.59711,-28.615727,265060,6832226,50,Fe,Iron,IRON ORE,Oakajee,N,,Y,PORT,P,Major Projects,Public,1840,GERALDTON,SH50-01,GERALDTON,"CHAPMAN VALLEY, SHIRE OF","MID-WEST, Development Region",66,NORTHAMPTON M.F.,"Pinjarra Orogen, Northampton Inlier",20260515
S0246911,Oakajee Strategic Industrial Area,Oakajee Strategic Industrial Area,Infrastructure,Other,Proposed,J07142,Oakajee Strategic Industrial Area,114.612817,-28.599635,266561,6834041,50,UN,Other (MINEDEX non-minerals),UNASSIGNED,Oakajee,N,,Y,,,Major Projects,Public,1840,GERALDTON,SH50-01,GERALDTON,"CHAPMAN VALLEY, SHIRE OF","MID-WEST, Development Region",66,NORTHAMPTON M.F.,"Pinjarra Orogen, Northampton Inlier",20260515
S0240111,Western Green Energy Hub,Western Green Energy Hub,Infrastructure,Unspecified,Proposed,J06003,Western Green Energy Hub (WGEH),128.955111,-31.649304,495744,6498434,52,Power,Energy,OTHER,Western Green Energy Hub,N,,Y,ENPL,P,Major Projects,Public,4634,EUCLA,SH52-14,EUCLA,"DUNDAS, SHIRE OF","GOLDFIELDS-ESPERANCE, Development Region",69,WARBURTON M.F.,Madura Shelf,20260515
S0223554,Wheatstone LNG,Wheatstone LNG Plants 1-3,Infrastructure,Processing Plant,Operating,J03660,Wheatstone LNG,114.992355,-21.697155,292301,7599347,50,LNG,Energy,PETROLEUM,Wheatstone LNG,N,,Y,PPPL,O,Major Projects,Public,1854,TUBRIDGI,SF50-05,ONSLOW,"ASHBURTON, SHIRE OF","PILBARA, Development Region",8,ASHBURTON M.F.,Peedamullah Shelf,20260515
S0223555,Macedon Gas Plant,Macedon Domestic Gas Plant,Infrastructure,Processing Plant,Operating,J03661,Macedon Domestic Gas,114.980473,-21.731537,291121,7595524,50,NaturalGas,Energy,PETROLEUM,Macedon Gas,N,,Y,PPPL,O,Major Projects,Public,1854,TUBRIDGI,SF50-05,ONSLOW,"ASHBURTON, SHIRE OF","PILBARA, Development Region",8,ASHBURTON M.F.,Peedamullah Shelf,20260515
S0223575,Ashburton North Port,Ashburton North Multi-user Port and Handling Facility,Infrastructure,Port,Operating,J03665,Ashburton North Strategic Industrial Area,115.003549,-21.684295,293441,7600786,50,UN,Energy,UNASSIGNED,Ashburton North,N,,Y,PORT,O,Major Projects,Public,1954,ONSLOW,SF50-05,ONSLOW,"ASHBURTON, SHIRE OF","PILBARA, Development Region",8,ASHBURTON M.F.,Peedamullah Shelf,20260515
S0236298,Tubridgi Gas Storage,Tubridgi Gas Storage Facility,Infrastructure,Processing Plant,Operating,J05329,Tubridgi Underground Gas Storage Facility,114.86671,-21.783932,279430,7589563,50,NaturalGas,Energy,PETROLEUM,Tubridgi gas storage,N,,Y,PPPL,O,Major Projects,Public,1854,TUBRIDGI,SF50-05,ONSLOW,"ASHBURTON, SHIRE OF","PILBARA, Development Region",8,ASHBURTON M.F.,Peedamullah Shelf,20260515
S0020548,Onslow Salt Jetty,Onslow Salt Jetty,Infrastructure,Port,Operating,J00982,Onslow Salt,115.10115,-21.637048,303477,7606144,50,Salt,Industrial mineral,SALT,Onslow,N,,Y,PORT,O,Major Projects,Public,1954,ONSLOW,SF50-05,ONSLOW,"ASHBURTON, SHIRE OF","PILBARA, Development Region",8,ASHBURTON M.F.,Peedamullah Shelf,20260515
S0023352,Onslow Salt Condenser PND,Onslow Salt Condenser Ponds,Mine,Pond,Operating,J00982,Onslow Salt,115.156122,-21.706287,309259,7598546,50,Salt,Industrial mineral,SALT,Onslow Salt,Y,Salt,Y,INMI,O,Major Projects,Public,1954,ONSLOW,SF50-05,ONSLOW,"ASHBURTON, SHIRE OF","PILBARA, Development Region",8,ASHBURTON M.F.,Peedamullah Shelf,20260515
S0236066,Mardie Pond 8,Mardie Evaporation Pond P8,Mine,Pond,Under Development,J05265,Mardie Salt-Potash / BCI,115.926501,-21.113907,388512,7664870,50,Salt K2SO4,Industrial mineral,SALT,Mardie Salt,Y,Salt K2SO4,Y,INMI,U,Major Projects,Public,2055,MARDIE,SF50-06,YARRALOOLA,"KARRATHA, CITY OF","PILBARA, Development Region",8,ASHBURTON M.F.,Peedamullah Shelf,20260515
S0235708,Ashburton Salt Crystalliser Pond,Ashburton Salt Crystalliser Pond,Mine,Pond,Proposed,J05140,Ashburton Salt / K+S,114.730736,-21.875367,265515,7579236,50,Salt K,Industrial mineral,SALT,Ashburton Salt,Y,Salt K,Y,INMI,P,Major Projects,Public,1854,TUBRIDGI,SF50-05,ONSLOW,"ASHBURTON, SHIRE OF","PILBARA, Development Region",8,ASHBURTON M.F.,Peedamullah Shelf,20260515
S0016648,Kapok W Merdn,Kapok West / Meridian,Deposit,Unspecified,Undeveloped,J00638,Lennard Shelf / Northwest,125.992788,-18.73047,815609,7926346,51,Pb Zn Ag,Base metal,COPPER - LEAD - ZINC,Lennard Shelf Pb Zn Ag,Y,Pb Zn Ag,Y,BAME,P,Major Projects,Public,4060,BRUTEN,SE51-12,NOONKANBAH,"DERBY/WEST KIMBERLEY, SHIRE OF","KIMBERLEY, Development Region",4,WEST KIMBERLEY M.F.,Lennard Shelf,20260515
S0236617,Havieron UG,Havieron Underground,Mine,Decline,Under Development,J05392,Paterson / Greatland Resources,122.640676,-21.727803,462839,7597258,51,Au Cu Ag,Precious metal,GOLD,Havieron Au Cu Ag,Y,Au Cu Ag,Y,PRME,U,Major Projects,Public,3454,TERRINGA,SF51-06,PATERSON RANGE,"EAST PILBARA, SHIRE OF","PILBARA, Development Region",45,MARBLE BAR,Anketell Shelf,20260515
S0229735,Thunderbird,Thunderbird,Mine,Openpit,Operating,J04280,Thunderbird - Kimberley Mineral Sands,122.967888,-17.431701,496590,8072687,51,HM Zrn Ilm Leu Grt Rt Mnz Ce,Speciality metal,HEAVY MINERAL SANDS,Thunderbird HM Grt,Y,HM Zrn Ilm Leu Grt Rt Mnz Ce,Y,SPME,O,Major Projects,Public,3463,JOWLAENGA,SE51-06,BROOME,"BROOME, SHIRE OF","KIMBERLEY, Development Region",4,WEST KIMBERLEY M.F.,Fitzroy Trough,20260515
S0006490,Derby Port,Derby Port,Infrastructure,Port,Care and Maintenance,J04046,Derby Port,123.606706,-17.292027,564479,8088037,51,Zn Pb,Base metal,COPPER - LEAD - ZINC,Derby,N,,Y,PORT,O,Major Projects,Public,3663,DERBY,SE51-07,DERBY,"DERBY/WEST KIMBERLEY, SHIRE OF","KIMBERLEY, Development Region",4,WEST KIMBERLEY M.F.,Fitzroy Trough,20260515
S0243493,Power Plant,Thunderbird Power Plant,Infrastructure,Power Plant,Operating,J04280,Thunderbird - Kimberley Mineral Sands,122.979812,-17.434991,497856,8072323,51,Power,Speciality metal,HEAVY MINERAL SANDS,Thunderbird Power Plant,N,,Y,ENPL,O,Major Projects,Public,3463,JOWLAENGA,SE51-06,BROOME,"BROOME, SHIRE OF","KIMBERLEY, Development Region",4,WEST KIMBERLEY M.F.,Fitzroy Trough,20260515
S0246907,Browse LNG Strategic Industrial Area,Browse LNG Strategic Industrial Area,Infrastructure,Other,Proposed,J07139,Browse LNG Precinct Strategic Industrial Area,122.164352,-17.512855,411293,8063514,51,UN,Other (MINEDEX non-minerals),UNASSIGNED,Browse,N,,Y,,,Major Projects,Public,3362,BROOME,SE51-06,BROOME,"BROOME, SHIRE OF","KIMBERLEY, Development Region",4,WEST KIMBERLEY M.F.,Fitzroy Trough,20260515
S0224451,Badgingarra Wind Farm,Badgingarra Wind Farm,Infrastructure,Power Plant,Operating,J03840,Badgingarra Wind and Solar Farm,115.286487,-30.376318,335351,6638269,50,Power,Energy,OTHER,Badgingarra Wind Farm,N,,Y,ENPL,O,Major Projects,Public,1937,HILL RIVER,SH50-09,HILL RIVER,"DANDARAGAN, SHIRE OF","WHEATBELT, Development Region",70,SOUTH WEST M.F.,Cadda Terrace,20260515
S0022716,Atlas,Atlas / Image,Mine,Openpit,Operating,J00748,Atlas - North Perth Basin,115.248907,-30.538151,332017,6620276,50,HM Ilm Leu Rt Zrn Grt St Mnz,Speciality metal,HEAVY MINERAL SANDS,Atlas HM Grt,Y,HM Ilm Leu Rt Zrn Grt St Mnz,Y,SPME,O,Major Projects,Public,1936,WEDGE ISLAND,SH50-09,HILL RIVER,"DANDARAGAN, SHIRE OF","WHEATBELT, Development Region",70,SOUTH WEST M.F.,Cadda Terrace,20260515
S0002635,South Tails,Eneabba South Tails,Mine,Openpit,Care and Maintenance,J00514,Eneabba / Iluka,115.295144,-29.904478,335400,6690577,50,HM Ilm Zrn Rt Mnz,Speciality metal,HEAVY MINERAL SANDS,Eneabba HM,Y,HM Ilm Zrn Rt Mnz,Y,STAM,C,Major Projects,Public,1938,ARROWSMITH,SH50-05,DONGARA,"CARNAMAH, SHIRE OF","MID-WEST, Development Region",70,SOUTH WEST M.F.,Cadda Terrace,20260515
S0236949,Arrowsmith Central,Arrowsmith Central,Mine,Openpit,Proposed,J06643,Arrowsmith Central Silica Sand / VRX Silica,115.169228,-29.656129,322805,6717915,50,Sisd HM Ilm Rt,Industrial mineral,SILICA - SILICA SAND,Arrowsmith Central Sisd,N,,Y,INMI,P,Major Projects,Public,1938,ARROWSMITH,SH50-05,DONGARA,"IRWIN, SHIRE OF","MID-WEST, Development Region",70,SOUTH WEST M.F.,Cadda Terrace,20260515
S0018998,Heracles,Heracles - Dongara,Mine,Openpit,Proposed,J02458,Dongara Minerals Sands / Tronox,115.142904,-29.431465,319859,6742775,50,HM,Speciality metal,HEAVY MINERAL SANDS,Dongara,Y,HM,Y,SPME,P,Major Projects,Public,1939,MINGENEW,SH50-05,DONGARA,"IRWIN, SHIRE OF","MID-WEST, Development Region",70,SOUTH WEST M.F.,Donkey Creek Terrace,20260515
S0005925,Beharra Springs Plant,Beharra Springs Plant,Infrastructure,Processing Plant,Operating,J02369,Beharra Springs,115.140711,-29.463087,319701,6739266,50,NaturalGas,Energy,PETROLEUM,Beharra Springs,N,,Y,PPPL,O,Major Projects,Public,1939,MINGENEW,SH50-05,DONGARA,"IRWIN, SHIRE OF","MID-WEST, Development Region",70,SOUTH WEST M.F.,Donkey Creek Terrace,20260515
S0226110,Mumbida Wind Farm,Mumbida Wind Farm,Infrastructure,Power Plant,Operating,J04146,Mumbida Wind Farm,114.966957,-28.988055,301937,6791634,50,Power,Energy,OTHER,Mumbida Wind Farm,N,,Y,ENPL,O,Major Projects,Public,1840,GERALDTON,SH50-01,GERALDTON,"GREATER GERALDTON, CITY OF","MID-WEST, Development Region",70,SOUTH WEST M.F.,Greenough Shelf,20260515
S0020979,Alinta Wind Farm,Alinta-Walkaway Wind Farm,Infrastructure,Power Plant,Operating,J02857,Alinta-Walkaway Wind Farm,114.892208,-28.922287,294522,6798796,50,Power,Energy,OTHER,Alinta-Walkaway Wind Farm,N,,Y,ENPL,O,Major Projects,Public,1840,GERALDTON,SH50-01,GERALDTON,"GREATER GERALDTON, CITY OF","MID-WEST, Development Region",70,SOUTH WEST M.F.,Greenough Shelf,20260515
S0236179,Yandin Wind Farm,Yandin Wind Farm,Infrastructure,Power Plant,Operating,J05301,Yandin Wind Farm,115.613492,-30.757824,367296,6596416,50,Power,Energy,OTHER,Yandin Wind Farm,N,,Y,ENPL,O,Major Projects,Public,2036,DANDARAGAN,SH50-10,MOORA,"DANDARAGAN, SHIRE OF","WHEATBELT, Development Region",70,SOUTH WEST M.F.,Dandaragan Trough,20260515
S0025511,Yandanooka / Image,Yandanooka / Image,Deposit,Unspecified,Undeveloped,J02940,Yandanooka HMS / Image,115.535417,-29.332167,357800,6754322,50,HM Ilm Zrn Rt Leu,Speciality metal,HEAVY MINERAL SANDS,Yandanooka HM,Y,HM Ilm Zrn Rt Leu,Y,SPME,P,Major Projects,Public,2039,YANDANOOKA,SH50-06,PERENJORI,"MINGENEW, SHIRE OF","MID-WEST, Development Region",70,SOUTH WEST M.F.,Dandaragan Trough,20260515
S0236299,Mondarra Gas Storage,Mondarra Storage Facility and Load-out Facilities,Infrastructure,Processing Plant,Operating,J05330,Mondarra Underground Gas Storage Facility,115.117841,-29.309984,317210,6756199,50,NaturalGas,Energy,PETROLEUM,Mondarra gas storage,N,,Y,PPPL,O,Major Projects,Public,1939,MINGENEW,SH50-05,DONGARA,"IRWIN, SHIRE OF","MID-WEST, Development Region",70,SOUTH WEST M.F.,Dandaragan Trough,20260515
S0233998,Waitsia,Waitsia,Infrastructure,Handling-loading-storage,Operating,J04869,Waitsia,115.103204,-29.281017,315736,6759386,50,NaturalGas,Other (MINEDEX non-minerals),PETROLEUM,Waitsia gas plant,N,,Y,PPPL,O,Major Projects,Public,1939,MINGENEW,SH50-05,DONGARA,"IRWIN, SHIRE OF","MID-WEST, Development Region",70,SOUTH WEST M.F.,Dandaragan Trough,20260515
S0236157,Warradarge Wind,Warradarge Wind Farm,Infrastructure,Power Plant,Operating,J05298,Warradarge Wind Farm,115.4879,-29.9705,354110,6683522,50,Power,Energy,OTHER,Warradarge Wind Farm,N,,Y,ENPL,O,Major Projects,Public,1938,ARROWSMITH,SH50-05,DONGARA,"COOROW, SHIRE OF","MID-WEST, Development Region",70,SOUTH WEST M.F.,Dandaragan Trough,20260515
S0001244,Narngulu Dry Plant/Iluka,Narngulu Dry Plant / Iluka,Infrastructure,Processing Plant,Operating,J00514,Eneabba / Iluka,114.678112,-28.817627,273418,6810006,50,HM,Speciality metal,HEAVY MINERAL SANDS,Narngulu Mineral Separation Plant,N,,Y,MIPL,O,Major Projects,Public,1840,GERALDTON,SH50-01,GERALDTON,"GREATER GERALDTON, CITY OF","MID-WEST, Development Region",70,SOUTH WEST M.F.,Abrolhos Sub-basin,20260515
S0022958,Geraldton - Other Minerals,Geraldton Port - Other Minerals,Infrastructure,Port,Operating,J01712,Geraldton Port Authority,114.594814,-28.776705,265196,6814380,50,UN,Other (MINEDEX non-minerals),UNASSIGNED,Geraldton,N,,Y,PORT,O,Major Projects,Public,1840,GERALDTON,SH50-01,GERALDTON,"GREATER GERALDTON, CITY OF","MID-WEST, Development Region",70,SOUTH WEST M.F.,Abrolhos Sub-basin,20260515
S0239822,Haber,Haber,Infrastructure,Processing Plant,Proposed,J05955,Haber,114.680304,-28.820791,273639,6809659,50,Urea,Other (MINEDEX non-minerals),OTHER,Haber,N,,Y,PPPL,P,Major Projects,Public,1840,GERALDTON,SH50-01,GERALDTON,"GREATER GERALDTON, CITY OF","MID-WEST, Development Region",70,SOUTH WEST M.F.,Abrolhos Sub-basin,20260515
S0001892,Lancelin/Westdeen,Lancelin / Westdeen,Mine,Openpit,Operating,J00895,Lancelin / Westdeen,115.34756,-31.030411,342288,6565855,50,Aglime Lsd Lst-Lsd Lst,Industrial mineral,LIMESTONE - LIMESAND,Lancelin Lst Lsd,Y,Aglime Lsd Lst-Lsd Lst,Y,INMI,O,Major Projects,Public,1935,LEDGE POINT,SH50-13,LEDGE POINT,"GINGIN, SHIRE OF","WHEATBELT, Development Region",70,SOUTH WEST M.F.,Vlaming Sub-basin,20260515
S0234330,Lithium Plant/Tianqi,Kwinana Lithium Hydroxide Plant / Tianqi,Infrastructure,Processing Plant,Operating,J04090,Greenbushes Lithium,115.778415,-32.215868,384882,6434982,50,Li,Speciality metal,TIN - TANTALUM - LITHIUM,Tianqi lithium hydroxide plant,N,,Y,MIPL,O,Major Projects,Public,2033,FREMANTLE,SI50-02,PINJARRA,"KWINANA, CITY OF",METRO,70,SOUTH WEST M.F.,Mandurah Terrace,20260515
S0001568,Kwinana TiO2/Tronox,Kwinana TiO2 Pigment Plant / Tronox,Infrastructure,Processing Plant,Operating,J00485,Cooljarloo / Tronox,115.774344,-32.228146,384514,6433617,50,TiO2,Speciality metal,HEAVY MINERAL SANDS,Titanium pigment plant,N,,Y,MIPL,O,Major Projects,Public,2033,FREMANTLE,SI50-02,PINJARRA,"KWINANA, CITY OF",METRO,70,SOUTH WEST M.F.,Mandurah Terrace,20260515
S0001692,Ni Refinery,Kwinana Nickel Refinery,Infrastructure,Processing Plant,Care and Maintenance,J00767,Kwinana Nickel Refinery ,115.764713,-32.251856,383636,6430978,50,Ni,Steel alloy metal,NICKEL,Nickel refinery,N,,Y,MIPL,O,Major Projects,Public,2033,FREMANTLE,SI50-02,PINJARRA,"ROCKINGHAM, CITY OF",METRO,70,SOUTH WEST M.F.,Mandurah Terrace,20260515
S0001735,Kwinana Al,Kwinana Alumina Refinery,Infrastructure,Processing Plant,Shut,J00777,Jarrahdale - Kwinana,115.778408,-32.193217,384852,6437493,50,Al2O3Bayer,Alumina,BAUXITE - ALUMINA,Alumina refinery,N,,Y,MIPL,O,Major Projects,Public,2033,FREMANTLE,SI50-02,PINJARRA,"KWINANA, CITY OF",METRO,70,SOUTH WEST M.F.,Mandurah Terrace,20260515
S0001738,Pinjarra Al,Pinjarra Alumina Refinery,Infrastructure,Processing Plant,Operating,J00779,Wagerup-Pinjarra / Alcoa,115.949655,-32.643204,401486,6387779,50,Al2O3Bayer,Alumina,BAUXITE - ALUMINA,Pinjarra alumina refinery,N,,Y,MIPL,O,Major Projects,Public,2032,PINJARRA,SI50-02,PINJARRA,"MURRAY, SHIRE OF","PEEL, Development Region",70,SOUTH WEST M.F.,Mandurah Terrace,20260515
S0001994,KBB1,Kwinana Bulk Terminal KBB1,Infrastructure,Port,Operating,J00960,Kwinana Bulk Terminal,115.765317,-32.208755,383639,6435757,50,UN,Other (MINEDEX non-minerals),UNASSIGNED,Bulk Terminal,N,,Y,PORT,O,Major Projects,Public,2033,FREMANTLE,SI50-02,PINJARRA,,,70,SOUTH WEST M.F.,Mandurah Terrace,20260515
S0003516,Australian Gold Refinery,AGR Newburn Horrie Miller Drive,Infrastructure,Processing Plant,Operating,J01435,Perth Mint,115.96931,-31.961228,402602,6463398,50,Au,Precious metal,GOLD,Perth Mint,N,,Y,MIPL,O,Major Projects,Public,2034,PERTH,SH50-14,PERTH,"BELMONT, CITY OF",METRO,70,SOUTH WEST M.F.,Mandurah Terrace,20260515
S0004995,Rockingham Fused Zr,Rockingham Fused Zirconia Plant,Infrastructure,Processing Plant,Operating,J01288,Rockingham Fused Zirconia-Alumina,115.762108,-32.262992,383406,6429741,50,ZrO2-fused SiO2,Speciality metal,HEAVY MINERAL SANDS,Fused zirconia,N,,Y,MIPL,O,Major Projects,Public,2033,FREMANTLE,SI50-02,PINJARRA,"ROCKINGHAM, CITY OF",METRO,70,SOUTH WEST M.F.,Mandurah Terrace,20260515
S0005024,West Success Bank 2,West Success Bank Stage 2,Mine,Dredging Area,Operating,J00896,Cockburn Sound Limesand,115.661703,-32.07609,373690,6450347,50,Lsd Lst,Construction material,LIMESTONE - LIMESAND,Cockburn Sound,Y,Lsd Lst,Y,COMA,O,Major Projects,Public,2033,FREMANTLE,SI50-02,PINJARRA,"COCKBURN, CITY OF",METRO,70,SOUTH WEST M.F.,Mandurah Terrace,20260515
S0019344,Fremantle,Fremantle Port,Infrastructure,Port,Operating,J02573,Fremantle Port Authority,115.737812,-32.056128,380848,6452646,50,UN,Other (MINEDEX non-minerals),UNASSIGNED,Fremantle,N,,Y,PORT,O,Major Projects,Public,2033,FREMANTLE,SI50-02,PINJARRA,"FREMANTLE, CITY OF",METRO,70,SOUTH WEST M.F.,Mandurah Terrace,20260515
S0019409,Kwinana Cement,Kwinana Cement Plant,Infrastructure,Processing Plant,Operating,J00896,Cockburn Sound Limesand,115.77441,-32.211466,384499,6435466,50,Cement CaO Lsd,Construction material,CONSTRUCTION MATERIALS,Cement Plant,N,,Y,MIPL,O,Major Projects,Public,2033,FREMANTLE,SI50-02,PINJARRA,"KWINANA, CITY OF",METRO,70,SOUTH WEST M.F.,Mandurah Terrace,20260515
S0019503,Kwinana Power,Kwinana Power Plant,Infrastructure,Power Plant,Operating,J02618,Kwinana Power / Western Power,115.774336,-32.198447,384476,6436909,50,Power,Energy,OTHER,Kwinana Power Plant,N,,Y,ENPL,O,Major Projects,Public,2033,FREMANTLE,SI50-02,PINJARRA,"KWINANA, CITY OF",METRO,70,SOUTH WEST M.F.,Mandurah Terrace,20260515
S0019504,Kwinana LPG,Kwinana LPG Plant,Infrastructure,Processing Plant,Operating,J02619,Kwinana LPG-LNG,115.77794,-32.218199,384840,6434723,50,LPG-Butane Propane,Energy,PETROLEUM,LPG plant,N,,Y,PPPL,O,Major Projects,Public,2033,FREMANTLE,SI50-02,PINJARRA,"KWINANA, CITY OF",METRO,70,SOUTH WEST M.F.,Mandurah Terrace,20260515
S0020259,Cogen-Power,Pinjarra Co-Generation Power Plant,Infrastructure,Power Plant,Operating,J00779,Wagerup-Pinjarra / Alcoa,115.946896,-32.647208,401231,6387333,50,Power,Energy,OTHER,Pinjarra Power Plant,N,,Y,ENPL,O,Major Projects,Public,2032,PINJARRA,SI50-02,PINJARRA,"MURRAY, SHIRE OF","PEEL, Development Region",70,SOUTH WEST M.F.,Mandurah Terrace,20260515
